city,ID,Station,Lat,Lon,站点
上海市,1.0,龙阳路,31.20575473979349,121.55338577270248,
上海市,2.0,世纪大道,31.230780725008,121.52287744778282,
上海市,3.0,曹杨路,31.241138321093658,121.4130552549553,
上海市,4.0,人民广场,31.234726100914,121.47061844528191,
上海市,5.0,上海火车站,31.25152569083936,121.45336662901308,
上海市,6.0,东方体育中心,31.155364767702004,121.47580957006534,
上海市,7.0,宜山路,31.18858694638816,121.42256310917372,
上海市,8.0,汉中路,31.2437819222736,121.4541294040466,
上海市,9.0,南京西路,31.23176040890223,121.4554060144134,
上海市,10.0,虹桥火车站,31.195949086774316,121.31439092038222,
上海市,11.0,陕西南路,31.21706142441198,121.45417683831936,
上海市,12.0,虹桥路,31.19938241886686,121.41617473708504,
上海市,13.0,上海南站,31.15646871837229,121.42541690326736,
上海市,14.0,金沙江路,31.233841002599448,121.40850166479254,
上海市,15.0,徐家汇,31.197216387322985,121.4322205975638,
上海市,16.0,静安寺,31.224964123115186,121.44162141480032,
上海市,17.0,中山公园,31.219792982328062,121.4111276137885,
上海市,18.0,镇坪路,31.24821368526512,121.4251465400403,
上海市,19.0,长寿路,31.24271909088111,121.4336543118544,
上海市,20.0,四平路,31.276883711002103,121.49705835934964,
上海市,21.0,宝山路,31.25346285448621,121.47178167751036,
上海市,22.0,国权路,31.29129931378409,121.50562390265412,
上海市,23.0,耀华路,31.180540794899464,121.49015870957868,
上海市,24.0,海伦路,31.261275096449587,121.4842227237244,
上海市,25.0,浦东大道,31.242379378183365,121.5149387434222,
上海市,26.0,漕宝路,31.17023062268233,121.4285225454298,
上海市,27.0,上海西站,31.264513779170173,121.39627177696283,
上海市,28.0,虹口足球场,31.27333126374638,121.47464555486243,
上海市,29.0,西藏南路,31.203968099946,121.48508866210176,
上海市,30.0,虹桥2号航站楼,31.1961589295248,121.32176415560676,
上海市,31.0,豫园,31.22998742618916,121.4829499058215,
上海市,32.0,昌邑路,31.24606456114812,121.5358072827796,
上海市,33.0,大世界,31.22935088790333,121.47467742438876,
上海市,34.0,常熟路,31.215415340697778,121.44454905303304,
上海市,35.0,曲阜路,31.244237999046543,121.46701194819452,
上海市,36.0,华夏中路,31.177983399692,121.57890370985992,
上海市,37.0,港城路,31.35536493942728,121.57078758556744,
上海市,38.0,嘉善路,31.204741982075607,121.45614343140844,
上海市,39.0,沈杜公路,31.063571253328305,121.50789914448627,
上海市,40.0,江浦公园,31.26664304507819,121.51934671194226,
上海市,41.0,铜川路,31.252559584218005,121.3923834371291,
上海市,42.0,江浦路,31.27699962293132,121.5140096227992,
上海市,43.0,延安西路,31.21146576493984,121.4124183214716,
上海市,44.0,江苏路,31.222268678702765,121.4260130840478,
上海市,45.0,桂林公园,31.168858838519263,121.41501627301244,
上海市,46.0,交通大学,31.20408566146285,121.43063317501412,
上海市,47.0,长江南路,31.334013461989567,121.48701141331932,
上海市,48.0,金海路,31.26529579397912,121.63439595691322,
上海市,49.0,桂林路,31.176658673826825,121.4134241763532,
上海市,50.0,成山路,31.172548026531384,121.491886582696,
上海市,51.0,浦电路,31.225290341517606,121.51356844392508,
上海市,52.0,大渡河路,31.233587911199308,121.38978093462096,
上海市,53.0,浦东国际机场,31.151704780733617,121.80214843492836,
上海市,54.0,巨峰路,31.282862605947045,121.58415534360049,
上海市,55.0,东安路,31.19273351882816,121.45032150870568,
上海市,56.0,蓝村路,31.21377986032013,121.52329423618126,
上海市,57.0,东明路,31.174725486474657,121.50648078440192,
上海市,58.0,蓝天路,31.243206074794493,121.57376173462744,
上海市,59.0,上海体育馆,31.184698516252592,121.4328087608394,
上海市,60.0,老西门,31.220990024817432,121.47930495944924,
上海市,61.0,莘庄,31.113054077432174,121.3807389281824,
上海市,62.0,莲溪路,31.17132073416444,121.56218622527224,
上海市,63.0,高科西路,31.187830830554496,121.50545302268972,
上海市,64.0,龙漕路,31.17136204383787,121.43978396946422,
上海市,65.0,天潼路,31.245789767163775,121.47797826702994,
上海市,66.0,真如,31.252593463733223,121.40256648369515,
上海市,67.0,武宁路,31.236197028249915,121.42587366381488,
上海市,68.0,大连路,31.259983533674333,121.50870147619408,
上海市,69.0,顾村公园,31.34640062938405,121.36836812659506,
上海市,70.0,大木桥路,31.195989525466587,121.4587256558614,
上海市,71.0,杨高中路,31.229661150566912,121.54439223275176,
上海市,72.0,隆德路,31.232354154288068,121.41893682048006,
上海市,73.0,一大会址·新天地,31.218319896123607,121.47066500264978,
上海市,74.0,娄山关路,31.21300228304866,121.39940834335825,
上海市,75.0,御桥,31.16035321382739,121.56669471879442,
上海市,76.0,陆家浜路,31.21377522512137,121.4816356806203,
上海市,77.0,云山路,31.25314657599273,121.56692640689556,
上海市,78.0,陆家嘴,31.240280654482337,121.4977047900488,
上海市,79.0,长清路,31.176019979748467,121.48405639114571,
上海市,80.0,马当路,31.211481921643607,121.47274647530102,
上海市,81.0,肇嘉浜路,31.20133631441656,121.44562386329896,
上海市,82.0,民生路,31.23798714602487,121.53924071490842,
上海市,83.0,南京东路,31.24007059757012,121.48014123145792,
上海市,84.0,龙华,31.174591433737803,121.44837904107726,
上海市,85.0,中潭路,31.256425447966176,121.43638747074375,
上海市,86.0,龙华中路,31.18576583413405,121.45248488789424,
上海市,87.0,罗山路,31.1554992644919,121.58895556449956,
上海市,88.0,杨高北路,31.28227212959659,121.59875497639932,
上海市,89.0,双柏路,31.085133881201703,121.41712161630367,
上海市,90.0,国帆路,31.341561630356477,121.50877484726696,
上海市,91.0,国际客运中心,31.252164366390595,121.49371842135344,
上海市,92.0,吴中路,31.186205319572025,121.409261274094,
上海市,93.0,昌吉东路,31.295572958912057,121.19590968312608,
上海市,94.0,张华浜,31.359980097957298,121.49422407960424,
上海市,95.0,昌平路,31.23561858966196,121.43800861423384,
上海市,96.0,丰翔路,31.3100298751017,121.37622494143606,
上海市,97.0,海天三路,31.17054251897069,121.792567382236,
上海市,98.0,唐镇,31.21625460106627,121.65201031530218,
上海市,99.0,宝安公路,31.371353907619213,121.4262724919089,
上海市,100.0,歇浦路,31.252874383561817,121.54723949573126,
上海市,101.0,航津路,31.33753020203205,121.58976284671556,
上海市,102.0,银都路,31.091256203401198,121.38562835835076,
上海市,103.0,航头,31.0396101894896,121.59189717194474,
上海市,104.0,中华艺术宫,31.187263479497293,121.48917562199806,
上海市,105.0,航头东,31.05720571900608,121.61330186718811,
上海市,106.0,上海科技馆,31.220966110924717,121.54015666375882,
上海市,107.0,航中路,31.167326503964382,121.35073990606706,
上海市,108.0,石龙路,31.159856864655342,121.43860442656144,
上海市,109.0,合川路,31.168414985544697,121.38013362257357,
上海市,110.0,松江南站,30.98696743792349,121.22647347952764,
上海市,111.0,鹤沙航城,31.08007500752997,121.60704861535898,
上海市,112.0,抚顺路,31.285706543326864,121.51141385114622,
上海市,113.0,鹤涛路,31.074142325841944,121.5817657836128,
上海市,114.0,西藏北路,31.26536746556992,121.46427650544332,
上海市,115.0,衡山路,31.20641835571629,121.44182648360238,
上海市,116.0,富锦路,31.394044982528445,121.4200089651238,
上海市,117.0,红宝石路,31.2007135260734,121.3937236593936,
上海市,118.0,一大会址·黄陂南路,31.225841124519604,121.46837891354237,
上海市,119.0,虹漕路,31.16590218130895,121.405909238511,
上海市,120.0,元江路,31.06475757173409,121.42728768906346,
上海市,121.0,安亭,31.290375738920677,121.157435988454,
上海市,122.0,赵巷,31.163247789463565,121.1878014604253,
上海市,123.0,虹梅路,31.162220179874904,121.39260525538324,
上海市,124.0,周浦东,31.112300097298263,121.60270344311536,
上海市,125.0,虹梅南路,31.105759997082945,121.42844399738928,
上海市,126.0,上海大学,31.32238739445389,121.38422909118678,
上海市,127.0,虹桥1号航站楼,31.193272934386165,121.34278866220998,
上海市,128.0,上海赛车场,31.33386850048262,121.22165441128584,
上海市,129.0,场中路,31.30549173614345,121.40900671497624,
上海市,130.0,申江路,31.28239413356759,121.6226437498941,
上海市,131.0,陈春路,31.177289872685748,121.55394936535625,
上海市,132.0,世纪公园,31.21158529235713,121.54664445156428,
上海市,133.0,陈翔公路,31.30841840448509,121.30228472108053,
上海市,134.0,四川北路,31.25399712722613,121.47971857608128,
上海市,135.0,虹莘路,31.13933985150158,121.37571634502702,
上海市,136.0,淞发路,31.347108586525717,121.49595040076404,
上海市,137.0,后滩,31.17388890632661,121.46923814213356,
上海市,138.0,奉贤新城,30.916099206818934,121.49187214118167,
上海市,139.0,呼兰路,31.34939504560812,121.45836538095392,
上海市,140.0,望园路,30.93407492550772,121.47911564606068,
上海市,141.0,花木路,31.21339647548912,121.55851584102638,
上海市,142.0,武定路,31.22916505496025,121.43153659340923,
上海市,143.0,花桥,31.3005520912127,121.099628604693,
上海市,144.0,下沙,31.056689696866115,121.58479742864498,
上海市,145.0,华东理工大学,31.14528747837545,121.42448351560424,
上海市,146.0,新闸路,31.24029683550525,121.46360958861692,
上海市,147.0,华泾西,31.115355418597787,121.43553497366236,
上海市,148.0,学林路,31.18569523487408,121.61016230941834,
上海市,149.0,华宁路,31.009423369583747,121.39062410210492,
上海市,150.0,杨思,31.163087259694247,121.4889940224712,
上海市,151.0,华鹏路,31.17839845486844,121.52223371533688,
上海市,152.0,高青路,31.162007471655667,121.5114182713093,
上海市,153.0,华夏东路,31.198684395117997,121.676667325918,
上海市,154.0,友谊路,31.40589979350743,121.47139329895154,
上海市,155.0,华夏西路,31.1519800812844,121.5101667260586,
上海市,156.0,云锦路,31.16842302290697,121.45395541000772,
上海市,157.0,宝杨路,31.38158902064805,121.44463886616448,
上海市,158.0,漕河泾开发区,31.172508766374825,121.393123238983,
上海市,159.0,淮海中路,31.22220294326987,121.45996306452533,
上海市,160.0,广兰路,31.213250169722883,121.61686416022428,
上海市,161.0,环城东路,30.93324825617873,121.45867397062052,
上海市,162.0,漕盈路,31.162341089395497,121.09227856685102,
上海市,163.0,黄兴公园,31.297475170767346,121.52906166137676,
上海市,164.0,诸光路,31.193685396261216,121.28857426088928,
上海市,165.0,黄兴路,31.28089386359941,121.52406512752248,
上海市,166.0,上大路,31.31687139972033,121.40392228472288,
上海市,167.0,黄杨路,31.23619792549489,121.58680984216052,
上海市,168.0,上海儿童医学中心,31.205377555102505,121.51913614328043,
上海市,169.0,汇金路,31.1631474319823,121.147106982459,
上海市,170.0,芳华路,31.19528064307204,121.54584981242724,
上海市,171.0,汇臻路,31.027445381969503,121.52023066870257,
上海市,172.0,芳芯路,31.193346565634734,121.55498225989184,
上海市,173.0,惠南,31.05593869648785,121.75732200705625,
上海市,174.0,上南路,31.15089869006352,121.5020459484366,
上海市,175.0,惠南东,31.0286057280075,121.78949484485076,
上海市,176.0,枫桥路,31.243681740614328,121.4067518614454,
上海市,177.0,基隆路,31.353463846314103,121.58619678039238,
上海市,178.0,世博会博物馆,31.199552004021506,121.47709819485898,
上海市,179.0,嘉定北,31.39350768576877,121.23290867718732,
上海市,180.0,书院,30.961561719446998,121.84635811745906,
上海市,181.0,嘉定西,31.37906396771883,121.22340904636852,
上海市,182.0,水产路,31.37507546639732,121.4582688782222,
上海市,183.0,嘉定新城,31.332043033846222,121.24985884598482,
上海市,184.0,泗泾,31.12034928703115,121.25582715303996,
上海市,185.0,赤峰路,31.283191495768083,121.47793090791104,
上海市,186.0,松江新城,31.03241760261381,121.22632455962533,
上海市,187.0,嘉松中路,31.166141818441936,121.21948463328418,
上海市,188.0,宋园路,31.19839340344766,121.40743415673852,
上海市,189.0,嘉怡路,31.261076297473902,121.34111232825096,
上海市,190.0,桃浦新村,31.2834678808928,121.34502819425622,
上海市,191.0,剑川路,31.028431615056487,121.41195383832373,
上海市,192.0,通河新村,31.332957750076226,121.43692692099344,
上海市,193.0,江川路,31.0073944160585,121.41885422354112,
上海市,194.0,外高桥保税区南,31.323742073398027,121.59775456461075,
上海市,195.0,江宁路,31.2461507905576,121.44022546590188,
上海市,196.0,文井路,31.00556434562284,121.37615448494182,
上海市,197.0,川沙,31.188824509230237,121.69387546268231,
上海市,198.0,五莲路,31.274207012564112,121.58365671248474,
上海市,199.0,创新中路,31.21598581748333,121.6694208603461,
上海市,200.0,武威东路,31.277464512213328,121.38744114871848,
上海市,201.0,春申路,31.100158906066834,121.38118468565897,
上海市,202.0,西渡,30.991336151447683,121.42783488663484,
上海市,203.0,江湾体育场,31.306320067395266,121.50892435390088,
上海市,204.0,萧塘,30.967902501757923,121.43727016616612,
上海市,205.0,江湾镇,31.30750840498379,121.48057297424148,
上海市,206.0,新村路,31.26578139808645,121.41803890522168,
上海市,207.0,江杨北路,31.409658761827806,121.43518974837995,
上海市,208.0,行知路,31.286761541814748,121.41684680809529,
上海市,209.0,江月路,31.08637340812985,121.50421513705736,
上海市,210.0,徐泾东,31.190366611686496,121.29472710736854,
上海市,211.0,打浦桥,31.20824926120278,121.4641439972319,
上海市,212.0,延吉中路,31.29063587112371,121.53062507204665,
上海市,213.0,金海湖,30.930968075237143,121.48807333080148,
上海市,214.0,白银路,31.34733473738238,121.24091460180276,
上海市,215.0,大柏树,31.291376422878315,121.47871992682136,
上海市,216.0,高桥,31.354748787633703,121.55872150569398,
上海市,217.0,金吉路,31.266476960329857,121.62425925922128,
上海市,218.0,金京路,31.28199709915158,121.61126766435402,
上海市,219.0,殷高路,31.32367241699714,121.4911049443028,
上海市,220.0,金科路,31.206427541808903,121.59779027700787,
上海市,221.0,永德路,31.041120754750107,121.43861267967064,
上海市,222.0,金平路,31.01323637729128,121.40555532392588,
上海市,223.0,共富新村,31.356889796122434,121.42942782007373,
上海市,224.0,金桥,31.26303487591352,121.60713046975997,
上海市,225.0,源深体育中心,31.23512017263025,121.53032980656296,
上海市,226.0,金桥路,31.25926897638381,121.57760370723194,
上海市,227.0,云顺路,31.23926332665239,121.59613450044289,
上海市,228.0,大场镇,31.29513246753332,121.41189661890624,
上海市,229.0,张江路,31.1913320708995,121.62496767040516,
上海市,230.0,金沙江西路,31.243060812878287,121.33059601892876,
上海市,231.0,顾唐路,31.26819769778674,121.6522016203469,
上海市,232.0,金粤路,31.24426910759223,121.62479747880192,
上海市,233.0,真北路,31.23407811392597,121.37730648895491,
上海市,234.0,金运路,31.24292509415809,121.31478399739449,
上海市,235.0,漕溪路,31.17863612527698,121.43379813827453,
上海市,236.0,锦江乐园,31.144099189073494,121.40946706473196,
上海市,237.0,中宁路,31.246890780763508,121.40989239510374,
上海市,238.0,锦秋路,31.321990589800173,121.37711599841997,
上海市,239.0,中兴路,31.25514746464294,121.4644860370228,
上海市,240.0,锦绣路,31.1897431711628,121.53574880694742,
上海市,241.0,朱家角,31.10255376521451,121.04445383749665,
上海市,242.0,景西路,31.10163523701257,121.41412729825286,
上海市,243.0,紫藤路,31.171566932486677,121.36021759643144,
上海市,244.0,北蔡,31.182311924222184,121.54775762959852,
上海市,245.0,商城路,31.232325271841106,121.51190205358216,
上海市,246.0,九亭,31.139242321669723,121.31490762066534,
上海市,247.0,上海财经大学,31.309647024320984,121.4918809267146,
上海市,248.0,大华三路,31.27587235138815,121.4183053193176,
上海市,249.0,上海动物园,31.19212410004794,121.36351657501854,
上海市,250.0,康桥,31.136469261804823,121.56308269162412,
上海市,251.0,芳甸路,31.234012734424624,121.55418216900291,
上海市,252.0,康新公路,31.13268374567695,121.6130008602128,
上海市,253.0,上海马戏城,31.281762635692186,121.44743238898876,
上海市,254.0,岚皋路,31.25803009937746,121.41729578158989,
上海市,255.0,上海汽车城,31.28732512736465,121.17623137974807,
上海市,256.0,北桥,31.047046591241365,121.40542034065228,
上海市,257.0,上海体育场,31.18749932285853,121.43892672427351,
上海市,258.0,北新泾,31.218253309048425,121.36936697975383,
上海市,259.0,上海图书馆,31.20984485340492,121.43976059136132,
上海市,260.0,北洋泾路,31.24129816998872,121.54805044620991,
上海市,261.0,上海游泳馆,31.181016893618622,121.43681787747796,
上海市,262.0,乐秀路,31.267301050962768,121.3095885040718,
上海市,263.0,佘山,31.106176787621184,121.2252645950679,
上海市,264.0,李子园,31.270841332576527,121.38531790809904,
上海市,265.0,丰庄,31.24442545551704,121.35053860576627,
上海市,266.0,莲花路,31.13278518934359,121.39826723995374,
上海市,267.0,沈梅路,31.09338299859052,121.57638811937198,
上海市,268.0,丹阳路,31.25591286031285,121.52683513064504,
上海市,269.0,世博大道,31.184784199274134,121.47982986251937,
上海市,270.0,联航路,31.07569936822545,121.50621415403056,
上海市,271.0,封浜,31.269454397883653,121.29252655405736,
上海市,272.0,临港大道,30.92588512825049,121.90677040002176,
上海市,273.0,市光路,31.324795961649286,121.52760479790884,
上海市,274.0,临平路,31.26288130022849,121.49626468564875,
上海市,275.0,曙建路,31.092537702006105,121.41326434259352,
上海市,276.0,临洮路,31.264966320438223,121.32630785331814,
上海市,277.0,双江路,31.35568081132548,121.53511710686348,
上海市,278.0,临沂新村,31.19528822100013,121.51232664814697,
上海市,279.0,水城路,31.201334083380324,121.38761270612902,
上海市,280.0,灵岩南路,31.150710282854657,121.49085372602217,
上海市,281.0,奉浦大道,30.94409693169045,121.44441506256744,
上海市,282.0,凌空路,31.19490696557869,121.71972788775372,
上海市,283.0,松江大学城,31.05609410012169,121.228161771207,
上海市,284.0,凌兆新村,31.14333338270586,121.48520221255652,
上海市,285.0,松江体育中心,31.018136823204475,121.22613262625332,
上海市,286.0,刘行,31.359402202583667,121.35775039612228,
上海市,287.0,淞滨路,31.37287041256501,121.48834886989746,
上海市,288.0,龙柏新村,31.17876383947485,121.36585725349975,
上海市,289.0,淞虹路,31.220088671801165,121.35497942521164,
上海市,290.0,德平路,31.247570849881125,121.55999887544186,
上海市,291.0,台儿庄路,31.25501741481125,121.59325476537109,
上海市,292.0,滴水湖,30.90960523828748,121.92549314398477,
上海市,293.0,塘桥,31.21184589187018,121.5143271991131,
上海市,294.0,迪士尼,31.14342555774616,121.66368411264872,
上海市,295.0,提篮桥,31.255546830660453,121.50239236131236,
上海市,296.0,龙溪路,31.1962628325945,121.3753977302746,
上海市,297.0,铁力路,31.409964259065028,121.45656190878788,
上海市,298.0,淀山湖大道,31.13635357917333,121.077534975186,
上海市,299.0,同济大学,31.284101324296493,121.5019443378182,
上海市,300.0,龙耀路,31.16166129289096,121.45514230218824,
上海市,301.0,外高桥保税区北,31.349954641758472,121.58270973648746,
上海市,302.0,隆昌路,31.27733449813309,121.54040565008066,
上海市,303.0,外环路,31.122791491532816,121.38838017456648,
上海市,304.0,定边路,31.25824708189852,121.35777916650385,
上海市,305.0,威宁路,31.216717313576414,121.38264042862784,
上海市,306.0,北中路,31.184958250549144,121.55711639693348,
上海市,307.0,汶水路,31.294414796886365,121.4456548895092,
上海市,308.0,芦恒路,31.121140067177244,121.49383191881,
上海市,309.0,五角场,31.30007637269004,121.51024754617409,
上海市,310.0,鲁班路,31.201182066558378,121.47063236163883,
上海市,311.0,五洲大道,31.304739142298036,121.58500109195468,
上海市,312.0,东宝兴路,31.261833167308048,121.47569810281524,
上海市,313.0,复旦大学,31.298338057396958,121.49509044457034,
上海市,314.0,东昌路,31.23533379661081,121.51118027596873,
上海市,315.0,武威路,31.27848916148842,121.36005556464872,
上海市,316.0,罗南新村,31.39064498732771,121.35285047967062,
上海市,317.0,复兴岛,31.28293010281529,121.557068174421,
上海市,318.0,自然博物馆,31.2383611349092,121.45780732775418,
上海市,319.0,下南路,31.1814506857316,121.53589792974076,
上海市,320.0,醉白池,31.003263711325207,121.22494801892624,
上海市,321.0,翔殷路,31.307080766580675,121.5276474182383,
上海市,322.0,东城一路,31.03260756095104,121.52778976467827,
上海市,323.0,小南门,31.218886376589207,121.49396211991318,
上海市,324.0,马陆,31.321646420148824,121.2724538906038,
上海市,325.0,新场,31.047811739719258,121.6447483427015,
上海市,326.0,梅岭北路,31.24477807746424,121.39231813335029,
上海市,327.0,新江湾城,31.330495132646387,121.50253653517446,
上海市,328.0,美兰湖,31.40377170410032,121.3453600391577,
上海市,329.0,星中路,31.160002460407316,121.36428420140533,
上海市,330.0,民雷路,31.27043588269465,121.6638391788268,
上海市,331.0,秀沿路,31.140376699571668,121.59419641866027,
上海市,332.0,东川路,31.02015282236318,121.41527640163896,
上海市,333.0,徐泾北城,31.177566027782092,121.23724641890615,
上海市,334.0,闵瑞路,31.05015873648527,121.52601267159076,
上海市,335.0,徐盈路,31.18014855180505,121.24955382075176,
上海市,336.0,闵行开发区,31.00260795830284,121.3651056069706,
上海市,337.0,鞍山新村,31.27527092513032,121.50528504811038,
上海市,338.0,南陈路,31.323234446159216,121.39420387398408,
上海市,339.0,延长路,31.273553230469133,121.45074765918908,
上海市,340.0,南大路,31.301078823626504,121.3757002682708,
上海市,341.0,杨高南路,31.18967872854505,121.52074785128512,
上海市,342.0,东方绿舟,31.1005796902453,121.01509073371004,
上海市,343.0,杨树浦路,31.25399517148841,121.51283849466,
上海市,344.0,博兴路,31.265705096876,121.58247954440752,
上海市,345.0,姚虹路,31.19340413355514,121.40175744169925,
上海市,346.0,南浦大桥,31.210532362827728,121.49529462517468,
上海市,347.0,野生动物园,31.052481001380368,121.6948932854925,
上海市,348.0,南翔,31.298860057697336,121.31860351573096,
上海市,349.0,高桥西,31.353591482081924,121.54499946672232,
上海市,350.0,嫩江路,31.31687896710988,121.52762653065324,
上海市,351.0,伊犁路,31.20073021763476,121.39925039689604,
上海市,352.0,宁国路,31.27066856716505,121.52802967381956,
上海市,353.0,殷高东路,31.323769131531865,121.50238255229876,
上海市,354.0,潘广路,31.36600611949883,121.35123069292852,
上海市,355.0,殷高西路,31.32194132502462,121.4803630088841,
上海市,356.0,蟠龙路,31.188356185821068,121.2742020061756,
上海市,357.0,迎春路,31.223160961041412,121.54673270970706,
上海市,358.0,彭浦新村,31.30845402725456,121.444040789195,
上海市,359.0,邮电新村,31.27041568592333,121.4897917654782,
上海市,360.0,平凉路,31.26112168833874,121.52236120801729,
上海市,361.0,友谊西路,31.383087725284675,121.42330616726218,
上海市,362.0,东靖路,31.29285867371579,121.58452576574405,
上海市,363.0,共康路,31.320778261617683,121.44245701887446,
上海市,364.0,东兰路,31.15769732462829,121.38727267699912,
上海市,365.0,源深路,31.243421059934093,121.52669171990176,
上海市,366.0,东陆路,31.28470510624817,121.5749056579884,
上海市,367.0,远东大道,31.201415361817297,121.75092927735469,
上海市,368.0,浦东南路,31.24058419199659,121.508024717017,
上海市,369.0,古浪路,31.286396757320567,121.38757230234584,
上海市,370.0,浦东足球场,31.243835680197268,121.61122385539892,
上海市,371.0,云台路,31.18425545385275,121.49601343690368,
上海市,372.0,浦航路,31.043200473885985,121.52628210978972,
上海市,373.0,张江高科,31.204045924924,121.5834833903709,
上海市,374.0,浦江镇,31.09869653386169,121.50187472711843,
上海市,375.0,长风公园,31.227092353901188,121.39166985641,
上海市,376.0,浦三路,31.15302852693676,121.53471283723287,
上海市,377.0,顾戴路,31.14277222332446,121.387215004763,
上海市,378.0,七宝,31.15721206154168,121.34463793924542,
上海市,379.0,兆丰路,31.2908332364338,121.145695269789,
上海市,380.0,七莘路,31.13355429457612,121.3578578589532,
上海市,381.0,光明路,31.2980798110729,121.112860859881,
上海市,382.0,祁安路,31.293373253469596,121.38016370016008,
上海市,383.0,真光路,31.25510987033675,121.37951660147534,
上海市,384.0,祁华路,31.32412892091671,121.36892932154822,
上海市,385.0,真新新村,31.257408774570106,121.36731733807076,
上海市,386.0,祁连山路,31.27348128947009,121.37139658655428,
上海市,387.0,中春路,31.1513640803188,121.33314221979371,
上海市,388.0,祁连山南路,31.239481661117495,121.36265179254003,
上海市,389.0,中科路,31.181089008386238,121.59826836249196,
上海市,390.0,青浦新城,31.160815240994424,121.12107283014484,
上海市,391.0,中山北路,31.26078356130864,121.45463434484444,
上海市,392.0,曹路,31.27334325756766,121.67873113567656,
上海市,393.0,桂桥路,31.251584902504128,121.63086014502336,
上海市,394.0,曲阳路,31.27849599358049,121.48667093444168,
上海市,395.0,周浦,31.116370586412582,121.5633918884704,
上海市,396.0,洞泾,31.086583306368077,121.22605381314445,
上海市,397.0,洲海路,31.314395490150865,121.58518440820042,
上海市,398.0,三林,31.14532154672875,121.50741457135946,
上海市,399.0,朱梅路,31.126280692134547,121.4331955330028,
上海市,400.0,三林东,31.148587077092003,121.5186562817431,
上海市,401.0,颛桥,31.068933698520727,121.39723076471726,
上海市,402.0,三鲁公路,31.05829820823302,121.52306847453724,
上海市,403.0,紫竹高新区,31.025876176123347,121.44617932032574,
上海市,404.0,三门路,31.31522293388933,121.50393183167432,
上海市,405.0,繁荣路,31.104805705157947,121.56633172729109,
上海市,406.0,爱国路,31.28192417131564,121.54838888879294,
上海市,407.0,罗秀路,31.13346176787988,121.43119327398816,
东莞市,1.0,西平站,22.99663932298052,113.74170101724854,
东莞市,2.0,茶山站,23.082353350480467,113.83937777578112,
东莞市,3.0,陈屋站,22.96050944218305,113.68506338713914,
东莞市,4.0,寮厦站,22.94382348614366,113.6684783896248,
东莞市,5.0,旗峰公园站,23.02268161562649,113.76252870767222,
东莞市,6.0,东城站,23.03538911951721,113.77124073675084,
东莞市,7.0,东莞火车站站,23.091468720781,113.8552202183338,
东莞市,8.0,榴花公园站,23.08303384596004,113.80914904823058,
东莞市,9.0,珊美站,22.929084589090483,113.65910301104334,
东莞市,10.0,蛤地站,22.980823441502466,113.7237186572736,
东莞市,11.0,鸿福路站,23.013102516373277,113.75397961297004,
东莞市,12.0,天宝站,23.050047056192348,113.77351659458,
东莞市,13.0,虎门火车站站,22.86222663636877,113.66653079413726,
东莞市,14.0,下桥站,23.065551706654368,113.7831597510552,
东莞市,15.0,展览中心站,22.90527347075495,113.65645865146818,
乌鲁木齐市,1.0,,43.8397840749439,87.5717346945872,新疆图书馆站
乌鲁木齐市,2.0,,43.86896936862992,87.55934907834934,铁路局站
乌鲁木齐市,3.0,,43.88965124875143,87.54521589614232,植物园站
乌鲁木齐市,4.0,,43.80031124887986,87.61821845467163,北门站
乌鲁木齐市,5.0,,43.85905030181934,87.56337966633758,小西沟站
乌鲁木齐市,6.0,,43.89521836299636,87.49342863687261,大地窝堡站
乌鲁木齐市,7.0,,43.91340352888058,87.51944563056954,宣仁墩站
乌鲁木齐市,8.0,,43.778681115481575,87.61403128918897,二道桥站
乌鲁木齐市,9.0,,43.83350015682377,87.581668830824,八楼站
乌鲁木齐市,10.0,,43.89958149856156,87.4713150101744,国际机场站
乌鲁木齐市,11.0,,43.835809433289,87.60035351735901,王家梁站
乌鲁木齐市,12.0,,43.83162987790456,87.60963063035908,南湖北路站
乌鲁木齐市,13.0,,43.768268677659286,87.61121850588465,新疆大学站
乌鲁木齐市,14.0,,43.82072295488128,87.61062436170633,南湖广场站
乌鲁木齐市,15.0,,43.8124101623294,87.61214742348984,新兴街站
乌鲁木齐市,16.0,,43.78970783907874,87.61776055339153,南门站
乌鲁木齐市,17.0,,43.898889145774326,87.53890464622836,迎宾路口站
乌鲁木齐市,18.0,,43.90889688088207,87.53201275451089,三工站
乌鲁木齐市,19.0,,43.84655669003929,87.56877067480521,中营工站
乌鲁木齐市,20.0,,43.76021154054553,87.60790755152891,三屯碑站
乌鲁木齐市,21.0,,43.87929468125011,87.55226120492927,体育中心站
佛山市,1.0,广州南站,22.9914039102628,113.264041303397,
佛山市,2.0,魁奇路站,22.996342082286723,113.1031272002156,
佛山市,3.0,𧒽岗站,23.0452263757869,113.149609168168,
佛山市,4.0,石壁站,22.9966631547153,113.272620894545,
佛山市,5.0,玉器街站,23.024362003065026,113.20440864476303,
佛山市,6.0,沧江路站,22.8973030641029,112.868403047508,
佛山市,7.0,千灯湖站,23.057405150327217,113.14991614706231,
佛山市,8.0,朝安站,23.030240207922795,113.1280659953542,
佛山市,9.0,陈村北站,22.97886815501348,113.2399302387376,
佛山市,10.0,陈村站,22.970736883820816,113.23155366078385,
佛山市,11.0,中区站,23.02829457413536,113.22060601193552,
佛山市,12.0,平南站,23.023239793086614,113.19641223004822,
佛山市,13.0,大学城南站,23.0459262130585,113.395041150349,
佛山市,14.0,石洲站,22.99331156836316,113.21079765643132,
佛山市,15.0,大洲站,22.9866375201298,113.252295523326,
佛山市,16.0,体育中心站,23.1373684171215,113.322975796128,
佛山市,17.0,登洲站,22.98190025772012,113.14333217944036,
佛山市,18.0,张槎站,23.01360390066233,113.06228872908908,
佛山市,19.0,东平站,22.967851625888688,113.12371821024628,
佛山市,20.0,板桥站,23.0193004119051,113.382458987043,
佛山市,21.0,南洲站,23.0669245695787,113.292385115525,
佛山市,22.0,平西站,23.03070694298031,113.19045522436616,
佛山市,23.0,阮埇站,22.9445448477294,112.851371857205,
佛山市,24.0,沙涌站,23.0857836870607,113.241529703441,
佛山市,25.0,石湾站,23.007851653153967,113.07780621322593,
佛山市,26.0,湾华站,22.99465327505905,113.12629629121616,
佛山市,27.0,北滘公园站,22.93269723364685,113.20658459786988,
佛山市,28.0,夏西站,23.03845832593232,113.16664288322998,
佛山市,29.0,桂城站,23.03424780640422,113.1359713193535,
佛山市,30.0,新城东站,22.961256115502827,113.13455021860692,
佛山市,31.0,燕岗站,23.0779181797198,113.266620228772,
佛山市,32.0,汉溪长隆站,22.9962428244912,113.32485878122,
佛山市,33.0,智湖站,22.9521123396691,112.848323817236,
佛山市,34.0,荷城站,22.9165799166548,112.861283427115,
佛山市,35.0,钟村站,22.9890684049253,113.311586857022,
佛山市,36.0,鹤洞站,23.0752306699935,113.234790291914,
佛山市,37.0,南桂路站,23.036760846024382,113.1486984391612,
佛山市,38.0,湖涌站,23.005671510399797,113.00608618728135,
佛山市,39.0,南涌站,22.94207971635741,113.23285907982324,
佛山市,40.0,花卉世界站,22.976021149086804,113.1559263014026,
佛山市,41.0,南庄站,22.985676658766085,113.0012665606354,
佛山市,42.0,华翠路站,23.039558052281023,113.158787236699,
佛山市,43.0,普君北路站,23.03022917140959,113.11675734194417,
佛山市,44.0,三山新城北站,23.02575701743337,113.2294210157594,
佛山市,45.0,季华园站,23.009707275197197,113.1030552752374,
佛山市,46.0,沙岗站,22.99907086784621,113.08876019317847,
佛山市,47.0,金融高新区站,23.06840222897493,113.15311302496158,
佛山市,48.0,沙园站,23.0913279739152,113.255227848105,
佛山市,49.0,锦龙站,22.95589109629879,113.2361871626184,
佛山市,50.0,石梁站,22.99525411724005,113.11326407177522,
佛山市,51.0,石溪站,23.0705610622066,113.280727863201,
佛山市,52.0,菊树站,23.0685507260858,113.207484105608,
佛山市,53.0,世纪莲站,22.96771902392133,113.10943360932302,
佛山市,54.0,康怡公园站,23.03581965062773,113.18459389845916,
佛山市,55.0,澜石站,22.986544684383464,113.10161953573837,
佛山市,56.0,同济路站,23.021767046163923,113.10301344608249,
佛山市,57.0,文化中心站,22.9208517003817,112.859529055749,
佛山市,58.0,西塱站,23.0687410818709,113.227071784969,
佛山市,59.0,沥滘站,23.0574809639571,113.313644103063,
佛山市,60.0,夏东站,23.037310647627912,113.17612958684806,
佛山市,61.0,仙涌站,22.9857024084478,113.19289621766636,
佛山市,62.0,林岳东站,22.996646879169862,113.24437805085512,
佛山市,63.0,谢村站,22.9932431593192,113.290956755061,
佛山市,64.0,新江路站,22.9295156048634,112.856010425288,
佛山市,65.0,林岳西站,22.99647892962517,113.23184406400864,
佛山市,66.0,怡乐路站,22.9083256575678,112.863965788522,
佛山市,67.0,龙溪站,23.0685868423924,113.18727552253,
佛山市,68.0,员岗站,23.0185633309084,113.360580630119,
佛山市,69.0,跃华路站,22.9008077152939,112.866157774619,
佛山市,70.0,绿岛湖站,23.00461989746548,113.0288617078164,
佛山市,71.0,智慧新城站,23.013749703141613,113.04998337891334,
佛山市,72.0,美的大道站,22.94749331985544,113.20242608027256,
佛山市,73.0,美的站,22.936259909465,113.22154790622044,
佛山市,74.0,祖庙站,23.029616510380308,113.10661009086016,
佛山市,75.0,明湖公园站,22.9253354992082,112.857767781371,
佛山市,76.0,南村万博站,23.0068871598032,113.340785381921,
兰州市,1.0,陈官营站,36.08727127774921,103.65994906576124,
兰州市,2.0,深安大桥南站,36.09085046622479,103.67565901976876,
兰州市,3.0,兰州城市学院(省科技馆)站,36.09915659820943,103.69869025654184,
兰州市,4.0,兰州海关站,36.09475904024928,103.70701876829752,
兰州市,5.0,马滩站,36.08313531095271,103.72480371866092,
兰州市,6.0,土门墩站,36.07328138888055,103.74066508715136,
兰州市,7.0,兰州西站北广场站,36.07044404889442,103.74984182177992,
兰州市,8.0,西站什字站,36.06872813679023,103.76700813331456,
兰州市,9.0,七里河站,36.066649191708656,103.77876864076327,
兰州市,10.0,小西湖站,36.06378143574794,103.79381067150824,
兰州市,11.0,文化宫站,36.06140612324882,103.80272236370531,
兰州市,12.0,西关站,36.05966821751298,103.81449553061718,
兰州市,13.0,省政府站,36.05848586040985,103.8249263582999,
兰州市,14.0,东方红广场站,36.05353488912097,103.84003807742045,
兰州市,15.0,兰州大学站,36.05032457753919,103.8542290726954,
兰州市,16.0,五里铺站,36.04705184370568,103.8683506803313,
兰州市,17.0,省气象局站,36.04203539359147,103.88115793290378,
兰州市,18.0,拱星墩站,36.039519034564464,103.89308840046311,
兰州市,19.0,焦家湾站,36.03872021720509,103.90543222966124,
兰州市,20.0,东岗站,36.04087277373905,103.91545719176936,
北京市,1.0,2号航站楼,40.0782638464891,116.58700235912934,
北京市,2.0,3号航站楼,40.05149198896358,116.6097624041292,
北京市,3.0,安德里北街,39.95582216062693,116.38889584495152,
北京市,4.0,安定门,39.94768199829821,116.40197932803632,
北京市,5.0,安河桥北,40.01096713405466,116.26390914494836,
北京市,6.0,安华桥,39.96710187637749,116.38840456785748,
北京市,7.0,安立路,40.00121173411933,116.4015903347542,
北京市,8.0,安贞门,39.9755984361305,116.39970200166869,
北京市,9.0,奥林匹克公园,40.00080165012995,116.38550448781412,
北京市,10.0,奥体中心,39.98443150001578,116.38750668541836,
北京市,11.0,八宝山,39.906221826914745,116.22970051561322,
北京市,12.0,八角游乐园,39.906202185368905,116.20678494135365,
北京市,13.0,八里桥,39.90507291672019,116.612855144739,
北京市,14.0,巴沟,39.97316115234853,116.28728653159044,
北京市,15.0,白堆子,39.92251026941711,116.3196312551008,
北京市,16.0,白盆窑,39.81831115419467,116.30730099892536,
北京市,17.0,白石桥南,39.93171405184872,116.3195482844229,
北京市,18.0,百子湾,39.89130264733576,116.4917547832623,
北京市,19.0,北安河,40.06674429261263,116.12412411155152,
北京市,20.0,北工大西门,39.87400773729061,116.4711946282365,
北京市,21.0,北宫门,40.00113871187354,116.27159458249965,
北京市,22.0,北海北,39.93184719377157,116.38058738264638,
北京市,23.0,北京大学东门,39.990920332646034,116.30972501034437,
北京市,24.0,北京南站,39.863621625553534,116.37278238450054,
北京市,25.0,北京西站,39.89346512601771,116.31514515008536,
北京市,26.0,北京站,39.903592759705006,116.42106282091744,
北京市,27.0,北沙滩,40.00010807543932,116.36191463175562,
北京市,28.0,北邵洼,40.22074240984686,116.27586406478564,
北京市,29.0,北神树,39.81758616285892,116.54692947798829,
北京市,30.0,北太平庄,39.96740795725017,116.3638428609172,
北京市,31.0,北土城,39.97619567424917,116.38794257151936,
北京市,32.0,北辛安,39.91381346514971,116.15862002979196,
北京市,33.0,北新桥,39.93938118523576,116.41064295477918,
北京市,34.0,北苑,40.04160996455754,116.42828831688426,
北京市,35.0,北苑路北,40.02903220547456,116.41183760547572,
北京市,36.0,北运河东,39.90207503967077,116.70103518989404,
北京市,37.0,北运河西,39.90186202570629,116.68238470579402,
北京市,38.0,菜户营,39.866290229033325,116.33628240814758,
北京市,39.0,菜市口,39.88790912777704,116.36820187086536,
北京市,40.0,草房,39.92343062950175,116.60977299828912,
北京市,41.0,草桥,39.84451755632925,116.34520902949602,
北京市,42.0,茶棚,39.98089429504929,116.24206067534948,
北京市,43.0,昌平,40.21930640692907,116.22751007231832,
北京市,44.0,昌平东关,40.22048388003669,116.25598996641784,
北京市,45.0,昌平西山口,40.24333599059847,116.18921344311424,
北京市,46.0,常营,39.924656432015006,116.5939338392862,
北京市,47.0,朝阳公园,39.9322059550819,116.47219994726204,
北京市,48.0,朝阳门,39.92310503779361,116.42829340989178,
北京市,49.0,车道沟,39.94667051841494,116.28775007420042,
北京市,50.0,车公庄,39.93103639108687,116.34816207833846,
北京市,51.0,车公庄西,39.93112328428844,116.3379086148017,
北京市,52.0,成寿寺,39.84451798873752,116.44145927031906,
北京市,53.0,崇文门,39.89968586169742,116.4106730382008,
北京市,54.0,传媒大学,39.908135703517885,116.54880978297663,
北京市,55.0,慈寿寺,39.93209887137428,116.2892343685874,
北京市,56.0,磁器口,39.89177537339157,116.4137080038655,
北京市,57.0,次渠,39.80251665050204,116.58579070512673,
北京市,58.0,次渠北,39.80834732837128,116.57088878507696,
北京市,59.0,次渠南,39.794080335888495,116.57558152380297,
北京市,60.0,崔各庄,40.02095386731735,116.48692034942772,
北京市,61.0,褡裢坡,39.922956637635885,116.55814850920189,
北京市,62.0,达官营,39.888557306043765,116.33030404174356,
北京市,63.0,大葆台,39.80656801717453,116.28563402976752,
北京市,64.0,大红门,39.84398241678415,116.39291823876113,
北京市,65.0,大红门南,39.83531475356632,116.39481023690524,
北京市,66.0,大郊亭,39.891926405893976,116.48188446870442,
北京市,67.0,大井,39.86399917857448,116.2700272777594,
北京市,68.0,大石河东,39.70852416308252,116.03372300185934,
北京市,69.0,大屯路东,40.00243795200817,116.4111283423617,
北京市,70.0,大瓦窑,39.85825517918676,116.23445161024866,
北京市,71.0,大望路,39.90699503941456,116.4696861683752,
北京市,72.0,大兴机场,39.5110850228121,116.410620078005,
北京市,73.0,大兴新城,39.734219179559744,116.35933156422,
北京市,74.0,大钟寺,39.96526601520118,116.33895898441108,
北京市,75.0,稻田,39.793658968841136,116.21279215139236,
北京市,76.0,稻香湖路,40.06765064478916,116.18199280233311,
北京市,77.0,德茂,39.77128738778279,116.43528587823864,
北京市,78.0,灯市口,39.915713745059485,116.41154579545226,
北京市,79.0,定海园,39.7999825157974,116.556308885513,
北京市,80.0,定海园西,39.7953170962441,116.546687258597,
北京市,81.0,东大桥,39.921702280301695,116.44548202401228,
北京市,82.0,东单,39.906926606228026,116.41224458412644,
北京市,83.0,东风北桥,39.95710978896227,116.4798527856106,
北京市,84.0,东高地,39.80367699034879,116.40319818071612,
北京市,85.0,东管头,39.86627358903926,116.31508370807128,
北京市,86.0,东管头南,39.85433855471856,116.31701681663684,
北京市,87.0,东湖渠,40.00935152970526,116.4612735780332,
北京市,88.0,东四,39.92297024735652,116.41125460012766,
北京市,89.0,东四十条,39.93241813043727,116.42791652878395,
北京市,90.0,东夏园,39.90192544534045,116.72778087053216,
北京市,91.0,东直门,39.94024527095312,116.42962776694787,
北京市,92.0,动物园,39.93691638519677,116.33286811131012,
北京市,93.0,垡头,39.859544122307845,116.5058647869635,
北京市,94.0,方庄,39.86449756430613,116.43404841329333,
北京市,95.0,房山城关,39.70489901792031,115.98353002735,
北京市,96.0,分钟寺,39.85088363238416,116.44781636391546,
北京市,97.0,丰台东大街,39.85386271031147,116.28780058389026,
北京市,98.0,丰台科技园,39.82398153113152,116.29111756326836,
北京市,99.0,丰台南路,39.8391921999331,116.29068842999632,
北京市,100.0,丰台站,39.84837392394337,116.2984646398243,
北京市,101.0,俸伯,40.13140520799049,116.67874015584984,
北京市,102.0,阜成门,39.922323047339326,116.34981193574416,
北京市,103.0,阜通,39.99039268351502,116.46561857686122,
北京市,104.0,复兴门,39.90587836589652,116.35066936443872,
北京市,105.0,甘家口,39.92206748415028,116.32838319347306,
北京市,106.0,高碑店,39.90831644780911,116.52552748281371,
北京市,107.0,高家园,39.97931358397939,116.4824838304946,
北京市,108.0,高楼金,39.86200137355375,116.67838272317876,
北京市,109.0,高米店北,39.77223899466038,116.32466359736566,
北京市,110.0,高米店南,39.76218041807413,116.32548098312137,
北京市,111.0,公益西桥,39.83560118137644,116.36462548368564,
北京市,112.0,公主坟,39.90619494675847,116.3041856547942,
北京市,113.0,巩华城,40.12963690068191,116.28788784417344,
北京市,114.0,古城,39.90617576258305,116.1842109971772,
北京市,115.0,鼓楼大街,39.94756796280904,116.38752839042444,
北京市,116.0,关庄,39.99974416858079,116.42471633141322,
北京市,117.0,管庄,39.908051195354425,116.59321610566938,
北京市,118.0,光熙门,39.96694955934198,116.42553589892022,
北京市,119.0,广安门内,39.88805300009125,116.35204201198763,
北京市,120.0,广渠门内,39.89229149198591,116.42766515952044,
北京市,121.0,广渠门外,39.89229214579374,116.44281970996924,
北京市,122.0,广阳城,39.74665755435464,116.17886459499604,
北京市,123.0,郭公庄,39.8130637182789,116.29582320695052,
北京市,124.0,郭庄子,39.86362713554319,116.2470444871578,
北京市,125.0,国家图书馆,39.94180658790332,116.31905813505696,
北京市,126.0,国贸,39.90777582151647,116.45569749607972,
北京市,127.0,国展,40.06894428796309,116.54927923531044,
北京市,128.0,果园,39.89224489843297,116.64076390750554,
北京市,129.0,海淀黄庄,39.97470177654512,116.31144523816288,
北京市,130.0,海淀五路居,39.93135364184071,116.27048843574052,
北京市,131.0,海户屯,39.85040389357625,116.39406433576286,
北京市,132.0,郝家府,39.90198787248164,116.71178240647394,
北京市,133.0,和平里北街,39.9573335717913,116.41226217816808,
北京市,134.0,和平门,39.89870145285599,116.3779737360594,
北京市,135.0,和平西桥,39.96698481891773,116.41173143425416,
北京市,136.0,和义,39.81343921042422,116.39584104213138,
北京市,137.0,黑庄户,39.85768866030103,116.59333915796446,
北京市,138.0,后沙峪,40.11305310170009,116.55837575139007,
北京市,139.0,呼家楼,39.92200768208687,116.45547200646014,
北京市,140.0,虎坊桥,39.88808964991263,116.37836175176658,
北京市,141.0,花梨坎,40.08335374450072,116.5517487711667,
北京市,142.0,花乡东桥,39.82791902621767,116.31395806490644,
北京市,143.0,花园桥,39.93106018352954,116.30458468738004,
北京市,144.0,花庄,39.85554976022756,116.68950838691354,
北京市,145.0,化工,39.88615887017304,116.49744799418784,
北京市,146.0,欢乐谷景区,39.86528582952408,116.49406576402224,
北京市,147.0,环球度假区,39.84801003044088,116.67315816374618,
北京市,148.0,黄厂,39.84790109688421,116.54793511811395,
北京市,149.0,黄村火车站,39.72166014368939,116.3264897498934,
北京市,150.0,黄村西大街,39.730462000466936,116.3265086039445,
北京市,151.0,黄渠,39.92315340555653,116.57247241749248,
北京市,152.0,回龙观,40.06946575257702,116.32994292551872,
北京市,153.0,回龙观东大街,40.07979388136684,116.35679491732292,
北京市,154.0,惠新西街北口,39.98643340084447,116.41078107280752,
北京市,155.0,惠新西街南口,39.9757191722024,116.41129190686668,
北京市,156.0,火箭万源,39.79789516199431,116.41240558716255,
北京市,157.0,火器营,39.96469157541146,116.2829954186485,
北京市,158.0,霍营,40.07048055530616,116.35406199925576,
北京市,159.0,积水潭,39.94726508402908,116.3668970593392,
北京市,160.0,纪家庙,39.8431145774105,116.32724276903676,
北京市,161.0,嘉会湖,39.79186670463572,116.60458968880675,
北京市,162.0,建国门,39.90718154818681,116.42957185504646,
北京市,163.0,健德门,39.97532564777234,116.37511065962651,
北京市,164.0,将台,39.96985377150844,116.48344160205608,
北京市,165.0,焦化厂,39.85437379287125,116.53137832072647,
北京市,166.0,角门东,39.84374025463422,116.37941951616642,
北京市,167.0,角门西,39.84446924399416,116.36494089956584,
北京市,168.0,金安桥,39.92197200134316,116.15638073302507,
北京市,169.0,金台路,39.9222698682341,116.47202456163812,
北京市,170.0,金台夕照,39.91545716035418,116.45555809742535,
北京市,171.0,金鱼胡同,39.91452428353261,116.4049459848981,
北京市,172.0,劲松,39.88313893949498,116.45528029998164,
北京市,173.0,经海路,39.78252851859944,116.55644646565644,
北京市,174.0,经海一路,39.7896617294616,116.534973529876,
北京市,175.0,景风门,39.86135653616348,116.35935742355105,
北京市,176.0,景泰,39.863849618192674,116.40479034934404,
北京市,177.0,九号村,39.7537351654815,116.502820199701,
北京市,178.0,九棵树,39.88917481574889,116.65164777652927,
北京市,179.0,九龙山,39.89193881753959,116.47261044801132,
北京市,180.0,旧宫,39.80558518405598,116.45465510367868,
北京市,181.0,军事博物馆,39.90612318577388,116.31534011520706,
北京市,182.0,科怡路,39.83122764406008,116.29137220487736,
北京市,183.0,来广营,40.01926800447458,116.4608529431564,
北京市,184.0,郎辛庄,39.85544282112358,116.56403088910174,
北京市,185.0,老观里,39.699259286984,116.508116796664,
北京市,186.0,梨园,39.88255304144043,116.6628043948892,
北京市,187.0,篱笆房,39.75937021474058,116.18337611896156,
北京市,188.0,立水桥,40.051578758461496,116.40605712852756,
北京市,189.0,立水桥南,40.04054941320983,116.40824005204082,
北京市,190.0,丽泽商务区,39.86640229631295,116.32513168178929,
北京市,191.0,栗园庄,39.89439609512222,116.11695876914224,
北京市,192.0,莲花桥,39.89658925251575,116.30425371612108,
北京市,193.0,良乡大学城,39.721873972112704,116.17040027663552,
北京市,194.0,良乡大学城北,39.728632938834856,116.1773577287288,
北京市,195.0,良乡大学城西,39.72183450884604,116.15008461030943,
北京市,196.0,良乡南关,39.72185390581775,116.13456696441712,
北京市,197.0,亮马桥,39.94805193227144,116.4560083954514,
北京市,198.0,廖公庄,39.93119619511711,116.22124035010536,
北京市,199.0,林萃桥,40.02051517425475,116.36675988680211,
北京市,200.0,临河里,39.874353126751664,116.6728677307203,
北京市,201.0,灵境胡同,39.914524703814735,116.36752038778717,
北京市,202.0,刘家窑,39.85612799201471,116.4158939852828,
北京市,203.0,柳芳,39.95677123809042,116.42650588508272,
北京市,204.0,六道口,39.99959744168512,116.3464697590492,
北京市,205.0,六里桥,39.87897520426157,116.29673221903973,
北京市,206.0,六里桥东,39.88583920795665,116.30892200214969,
北京市,207.0,龙泽,40.06957962911141,116.31329409703577,
北京市,208.0,鹿圈东,39.7651407253835,116.508021285091,
北京市,209.0,潞城,39.90142538047999,116.741352313765,
北京市,210.0,马各庄,39.70385982456372,116.01044552983504,
北京市,211.0,马家堡,39.85172756448605,116.3651466808185,
北京市,212.0,马连洼,40.0314061045848,116.26646862563511,
北京市,213.0,马泉营,40.032504735469885,116.49747096244634,
北京市,214.0,模式口,39.93203093204189,116.1499236663584,
北京市,215.0,牡丹园,39.97521792842419,116.36361620291518,
北京市,216.0,木樨地,39.90604938527762,116.33142727819772,
北京市,217.0,木樨园,39.85786051909327,116.39360141329692,
北京市,218.0,南法信,40.12742429335687,116.60371571769667,
北京市,219.0,南礼士路,39.90587740202001,116.3463948291202,
北京市,220.0,南楼梓庄,39.87336145355129,116.49508563225508,
北京市,221.0,南锣鼓巷,39.93244295437595,116.39794512767476,
北京市,222.0,南邵,40.206220757199176,116.28144334529406,
北京市,223.0,泥洼,39.85734403465741,116.29809724689484,
北京市,224.0,牛街,39.88916808501611,116.357261433432,
北京市,225.0,农大南路,40.02015780267894,116.2762118711416,
北京市,226.0,农业展览馆,39.93993315037108,116.45637957782594,
北京市,227.0,潘家园,39.874058202831264,116.45478391148188,
北京市,228.0,平安里,39.932561950195655,116.36665626576212,
北京市,229.0,平乐园,39.8839883124156,116.47121846757786,
北京市,230.0,平西府,40.08924533888084,116.34421795469252,
北京市,231.0,苹果园,39.9244923983689,116.172240050167,
北京市,232.0,蒲黄榆,39.86419141725885,116.41686213341038,
北京市,233.0,七里庄,39.86573140816508,116.28823437218706,
北京市,234.0,前门,39.89878878400714,116.39169443132047,
北京市,235.0,桥户营,39.91100099307157,116.11951618533074,
北京市,236.0,桥湾,39.89132242939945,116.4022236136706,
北京市,237.0,青年路,39.92199746365603,116.5114856440111,
北京市,238.0,清河站,40.03987170109093,116.30883977893389,
北京市,239.0,清华东路西口,39.99933593700364,116.33335808873692,
北京市,240.0,清源路,39.74141592624967,116.32638950386094,
北京市,241.0,屈庄,39.714507761798,116.501038767888,
北京市,242.0,群芳,39.86238810857925,116.66487299117908,
北京市,243.0,饶乐府,39.70025967756585,115.99997825354,
北京市,244.0,人民大学,39.9656549490517,116.31524083659136,
北京市,245.0,荣昌东街,39.781649193387885,116.51582624760086,
北京市,246.0,荣京东街,39.79195736993738,116.50744790458909,
北京市,247.0,融兴街,39.7212844807298,116.499293559579,
北京市,248.0,瑞合庄,39.7284886971641,116.497500142037,
北京市,249.0,三元桥,39.96016635808502,116.4508322184772,
北京市,250.0,森林公园南门,40.00871592941967,116.38634507159942,
北京市,251.0,沙河,40.14702044786672,116.28277983507726,
北京市,252.0,沙河高教园,40.16341701016919,116.27438908585071,
北京市,253.0,善各庄,40.02586976328372,116.47209182530148,
北京市,254.0,上岸,39.90375268257285,116.1159268241976,
北京市,255.0,上地,40.03170530569177,116.31406116140757,
北京市,256.0,芍药居,39.97625394832112,116.42969532102629,
北京市,257.0,什刹海,39.93617861989364,116.38997203807754,
北京市,258.0,生命科学园,40.09352953354276,116.28814296560776,
北京市,259.0,生物医药基地,39.68523029921168,116.31557026827568,
北京市,260.0,十八里店,39.84306946854113,116.4898324609078,
北京市,261.0,十里堡,39.92186011895886,116.49604427119046,
北京市,262.0,十里河,39.86508177997004,116.45183314063772,
北京市,263.0,十三陵景区,40.23894067208646,116.20151116406085,
北京市,264.0,石厂,39.88798178893119,116.09401288346729,
北京市,265.0,石榴庄,39.84450709301543,116.40787178692064,
北京市,266.0,石门,40.12871412575173,116.63524417359956,
北京市,267.0,首经贸,39.84316978998261,116.31409384572936,
北京市,268.0,双合,39.85854973105376,116.52093341140969,
北京市,269.0,双井,39.89202915640583,116.45760245491662,
北京市,270.0,双桥,39.90909165745483,116.5709666936864,
北京市,271.0,顺义,40.12887893891736,116.65110963971745,
北京市,272.0,四道桥,39.91465768348885,116.12773308771516,
北京市,273.0,四海庄,39.7453637583777,116.498604134886,
北京市,274.0,四惠,39.90751400459487,116.48943196712774,
北京市,275.0,四惠东,39.907319999702224,116.50971604179908,
北京市,276.0,宋家庄,39.84446301090066,116.4221529595234,
北京市,277.0,苏州街,39.97436817315421,116.3002372820655,
北京市,278.0,苏州桥,39.960775629231335,116.3019953828642,
北京市,279.0,苏庄,39.72181992151769,116.119036371549,
北京市,280.0,孙河,40.04398396740655,116.52880024640416,
北京市,281.0,太和桥北,39.7398383844463,116.495847912371,
北京市,282.0,太平桥,39.90838154314172,116.35703638008468,
北京市,283.0,太阳宫,39.9713158833994,116.44127678669258,
北京市,284.0,泰河路,39.75883395396,116.505297518261,
北京市,285.0,陶然桥,39.86739389382396,116.38093334245244,
北京市,286.0,陶然亭,39.87708369955794,116.36816130176013,
北京市,287.0,天安门东,39.90637602254212,116.39497219021592,
北京市,288.0,天安门西,39.906070735601,116.3850368334985,
北京市,289.0,天宫院,39.669068216475225,116.31384616858514,
北京市,290.0,天桥,39.88051749744133,116.3924716417333,
北京市,291.0,天坛东门,39.88116259098293,116.41460332529164,
北京市,292.0,天通苑,40.07383867087077,116.40662864252288,
北京市,293.0,天通苑北,40.082258108782064,116.40662555980776,
北京市,294.0,天通苑南,40.06520312136802,116.4064236158854,
北京市,295.0,田村,39.92828618319092,116.246882439933,
北京市,296.0,通运门,39.90927492791235,116.66897948177292,
北京市,297.0,通州北关,39.9172562249417,116.65558247314492,
北京市,298.0,通州北苑,39.90279411260547,116.63141560372524,
北京市,299.0,同济南路,39.77179819412861,116.53398405738436,
北京市,300.0,土桥,39.87076919071298,116.68038507141011,
北京市,301.0,团结湖,39.9324177099654,116.45565927731356,
北京市,302.0,屯佃,40.06721059065479,116.20976257458544,
北京市,303.0,湾子,39.88864393142258,116.32162195153082,
北京市,304.0,万安,39.982776559927146,116.22592491521216,
北京市,305.0,万泉河桥,39.983815182782976,116.29407415675888,
北京市,306.0,万盛东,39.86238945770352,116.65149747523468,
北京市,307.0,万盛西,39.862267164979656,116.626339225956,
北京市,308.0,万寿路,39.90622176277187,116.2887005227396,
北京市,309.0,万寿寺,39.946493968524656,116.30380539587888,
北京市,310.0,万源街,39.80172208102737,116.49947302901536,
北京市,311.0,王府井,39.90666677055712,116.40533020731188,
北京市,312.0,望京,39.99720823485957,116.463278782565,
北京市,313.0,望京东,40.0019364171584,116.48103759971296,
北京市,314.0,望京南,39.9833553720162,116.47554865693692,
北京市,315.0,望京西,39.99436571356916,116.44369507481562,
北京市,316.0,魏公村,39.95659977396789,116.31709076909632,
北京市,317.0,温阳路,40.06718118732085,116.15513384426846,
北京市,318.0,五道口,39.99156062095873,116.33157511006638,
北京市,319.0,五福堂,39.78365979085709,116.41768937984608,
北京市,320.0,五棵松,39.90622908326877,116.26794997401228,
北京市,321.0,物资学院路,39.92572707361602,116.63347220397536,
北京市,322.0,西北旺,40.04747986840236,116.25187660489084,
北京市,323.0,西单,39.90599147462074,116.36805076779297,
北京市,324.0,西钓鱼台,39.92222299675157,116.29199172097034,
北京市,325.0,西二旗,40.05175665058048,116.30019062976434,
北京市,326.0,西红门,39.78849454375855,116.32256837023296,
北京市,327.0,西黄村,39.93248531529168,116.20025993249553,
北京市,328.0,西局,39.86540201822606,116.29784773216788,
北京市,329.0,西四,39.92281882929023,116.36710589154784,
北京市,330.0,西铁营,39.85999806705061,116.3497639388948,
北京市,331.0,西土城,39.9751870673557,116.34789798877074,
北京市,332.0,西小口,40.04551197720849,116.34544000982298,
北京市,333.0,西苑,39.99700769856149,116.2848385175282,
北京市,334.0,西直门,39.93911131447149,116.34922794399,
北京市,335.0,香山,39.992801202910464,116.19838918500652,
北京市,336.0,小红门,39.82662097296612,116.45308470205777,
北京市,337.0,小园,39.88907405646034,116.10813506411311,
北京市,338.0,肖村,39.832863143240566,116.44219159265003,
北京市,339.0,新发地,39.82211385435809,116.34016849012984,
北京市,340.0,新宫,39.81122076104181,116.35934879657242,
北京市,341.0,新街口,39.93928605630786,116.36152201115492,
北京市,342.0,新首钢,39.90759681362075,116.15866594329684,
北京市,343.0,星城,39.71233000654191,116.05509248434896,
北京市,344.0,宣武门,39.89839672266453,116.36813062957144,
北京市,345.0,阎村,39.71535644839612,116.07386610230304,
北京市,346.0,阎村东,39.72764452945083,116.09451664765822,
北京市,347.0,燕山,39.71849801799748,115.96737671959671,
北京市,348.0,杨庄,39.9265690253344,116.1808665257818,
北京市,349.0,颐和园西门,39.98447456372832,116.25720811949162,
北京市,350.0,义和庄,39.71110841199846,116.3129898487861,
北京市,351.0,亦创会展中心,39.7831139670809,116.521431721847,
北京市,352.0,亦庄火车站,39.81157328047893,116.59613755068251,
北京市,353.0,亦庄桥,39.80173784818972,116.47423954411953,
北京市,354.0,亦庄同仁,39.7756169953091,116.51230241377,
北京市,355.0,亦庄文化园,39.80564653136413,116.48460234705335,
北京市,356.0,瀛海,39.75936645905066,116.44282044323091,
北京市,357.0,雍和宫,39.94793496526531,116.41082702847778,
北京市,358.0,永安里,39.907118163226905,116.44415331853916,
北京市,359.0,永定门外,39.86603313533784,116.3931304118164,
北京市,360.0,永丰,40.0706426322727,116.23242453360128,
北京市,361.0,永丰南,40.06435224202709,116.24210427497276,
北京市,362.0,永泰庄,40.03636254102656,116.34837124490004,
北京市,363.0,玉泉路,39.90621711066595,116.24685917902724,
北京市,364.0,玉渊潭东门,39.91263088468692,116.32838139038984,
北京市,365.0,育新,40.058921029430415,116.34096372183733,
北京市,366.0,育知路,40.08654506523563,116.32083771309478,
北京市,367.0,园博园,39.8600746446744,116.19555118285663,
北京市,368.0,圆明园,39.99838037011552,116.30408028550438,
北京市,369.0,枣营,39.9428362644836,116.46884271879745,
北京市,370.0,枣园,39.75214932173112,116.32607986771426,
北京市,371.0,张郭庄,39.8568226336868,116.18106479547872,
北京市,372.0,张自忠路,39.93219164918674,116.41091611601487,
北京市,373.0,长春桥,39.95727345097631,116.28818501260191,
北京市,374.0,长椿街,39.89805983920398,116.35714750010992,
北京市,375.0,长阳,39.76264058898523,116.20663647234947,
北京市,376.0,知春里,39.97501852170728,116.32256487546096,
北京市,377.0,知春路,39.97513913544886,116.33379018800018,
北京市,378.0,植物园,39.9923254673415,116.209683935501,
北京市,379.0,中关村,39.98269850659194,116.31034966547357,
北京市,380.0,中国美术馆,39.92275479384245,116.40455471903154,
北京市,381.0,周家庄,39.855418179193165,116.47027267833116,
北京市,382.0,朱辛庄,40.103002974565776,116.30757156527208,
北京市,383.0,珠市口,39.88993110636672,116.3921304901228,
北京市,384.0,紫草坞,39.723226025503536,116.0804174863494,
南京市,1.0,南京南站站,31.9730231430526,118.79161046763168,
南京市,2.0,南京站站,32.09140336131588,118.79132209624964,
南京市,3.0,油坊桥站,31.96848578427128,118.71616281363409,
南京市,4.0,翔宇路南站,31.75693623013268,118.82410976383238,
南京市,5.0,鼓楼站,32.06072449691911,118.77849744888393,
南京市,6.0,大行宫站,32.04380541101057,118.7896015847248,
南京市,7.0,马群站,32.05186595093156,118.88969861814388,
南京市,8.0,鸡鸣寺站,32.059342841549054,118.79290076965042,
南京市,9.0,泰冯路站,32.155515568961896,118.71371867408892,
南京市,10.0,金马路站,32.0739593888725,118.90127711562144,
南京市,11.0,新街口站,32.04386024904109,118.77893458197232,
南京市,12.0,卡子门站,31.997099799886925,118.79033409759622,
南京市,13.0,元通站,31.99750940093457,118.71624803296903,
南京市,14.0,空港新城江宁站,31.739838630512,118.8826617104998,
南京市,15.0,安德门站,31.99288641780749,118.75691908979644,
南京市,16.0,铜山站,31.69822557542369,118.87688727133806,
南京市,17.0,平良大街站,31.979888987858395,118.69752573378064,
南京市,18.0,玄武门站,32.07244167433095,118.77901705597218,
南京市,19.0,大厂站,32.230917521792485,118.7348921238022,
南京市,20.0,胜太西路站,31.945838186926817,118.80228051725032,
南京市,21.0,大明路站,31.98817703295564,118.79445203860348,
南京市,22.0,翔宇路北站,31.79334511328941,118.81643122177024,
南京市,23.0,大校场站,32.00051949852399,118.81975643093926,
南京市,24.0,张府园站,32.03301455565574,118.77873131183024,
南京市,25.0,奥体东站,32.00661438920504,118.7240237050094,
南京市,26.0,泉都大街站,32.035726379953346,119.0466519849774,
南京市,27.0,定向河北站,32.10520003255537,118.66579790434312,
南京市,28.0,汤山站,32.04988385243493,119.06254207443168,
南京市,29.0,东大成贤学院站,32.158355233802446,118.702692161572,
南京市,30.0,五塘广场站,32.112562973605606,118.77247037131318,
南京市,31.0,东大九龙湖校区站,31.898134790027957,118.82534861706934,
南京市,32.0,承天大道站,32.00333911219769,118.82719296567788,
南京市,33.0,东郊小镇站,32.053953768517765,118.94740204745314,
南京市,34.0,鱼嘴站,31.968845588324484,118.6647526832424,
南京市,35.0,东流站,32.07931281252578,118.95909419407272,
南京市,36.0,中山湖站,31.648598611667783,119.03991077794,
南京市,37.0,东麒路站,32.00311356547639,118.88080088465978,
南京市,38.0,浦珠路站,32.0991002457342,118.66816119812708,
南京市,39.0,方州广场站,32.36174622824338,118.8450114099256,
南京市,40.0,上海路站,32.04431615923684,118.77123334574902,
南京市,41.0,凤凰山公园站,32.34904075404163,118.8400038154949,
南京市,42.0,双龙大道站,31.96592120205104,118.812060397706,
南京市,43.0,夫子庙站,32.02617790689369,118.78572098580928,
南京市,44.0,天润城站,32.15291489394297,118.72885009575116,
南京市,45.0,浮桥站,32.05073192269645,118.79092316211393,
南京市,46.0,文德路站,32.05960314185232,118.62161746924713,
南京市,47.0,岗子村站,32.067679895339126,118.81068725252238,
南京市,48.0,下马坊站,32.03974062964536,118.84329554944765,
南京市,49.0,高淳站,31.343141443474902,118.87222234528576,
南京市,50.0,小行站,31.984484500328385,118.73946321315717,
南京市,51.0,高家冲站,31.911300270364936,118.51209004852728,
南京市,52.0,兴隆大街站,32.017314403300304,118.73072633961525,
南京市,53.0,高庙路站,31.970415139788933,118.6831970729064,
南京市,54.0,杨庄站,32.008533475048424,118.85928524888324,
南京市,55.0,高桥门站,32.004161659639834,118.83659747690083,
南京市,56.0,雨山路站,32.04671107885412,118.61011045913072,
南京市,57.0,高新开发区站,32.17961599835362,118.71427170535596,
南京市,58.0,珍珠泉站,32.11614606110818,118.6769042697135,
南京市,59.0,葛塘站,32.246594458259366,118.74847409206016,
南京市,60.0,珠江路站,32.05303038777165,118.77900583145464,
南京市,61.0,共青团路站,31.99390697799696,118.76943716487683,
南京市,62.0,浦口公园站,32.1032296600154,118.713376968515,
南京市,63.0,古泉站,32.05130549799226,119.00389335838894,
南京市,64.0,桥林新城站,31.93202205410403,118.54237674643608,
南京市,65.0,奥体中心站,32.011109993860465,118.7130878781936,
南京市,66.0,软件大道站,31.97883045029068,118.7693915086454,
南京市,67.0,汉中门站,32.04476391917498,118.76186115388488,
南京市,68.0,沈桥站,32.40214388917036,118.8867987818857,
南京市,69.0,石碛河站,31.940194384514346,118.55300458464588,
南京市,70.0,河定桥站,31.95418294930253,118.81501263257827,
南京市,71.0,常府街站,32.03546397406405,118.78712833738574,
南京市,72.0,河海大学·佛城西路站,31.91612036133296,118.7861858092532,
南京市,73.0,天保站,31.95526201918585,118.672294162117,
南京市,74.0,红山动物园站,32.097865404427075,118.79687534908312,
南京市,75.0,天元西路站,31.929761549067592,118.80344125150474,
南京市,76.0,宏运大道站,31.96108298058376,118.79890567362123,
南京市,77.0,团结圩站,31.39796453927609,118.88272911342726,
南京市,78.0,花神庙站,31.97983638218773,118.78045453429466,
南京市,79.0,无想山站,31.613282660773844,119.04116373415653,
南京市,81.0,西安门站,32.04219345904998,118.8005954463644,
南京市,82.0,化工园站,32.287475112750805,118.78033792485024,
南京市,83.0,仙林湖站,32.12757849527087,118.98742661304792,
南京市,84.0,黄梅站,32.0101008646582,119.110886567315,
南京市,85.0,小龙湾站,31.931844514806578,118.82763439724089,
南京市,86.0,汇通路站,32.08022219030383,118.9265799392097,
南京市,87.0,孝陵卫站,32.037593969697745,118.85299845462217,
南京市,88.0,机场跑道旧址站,31.995609552467084,118.80735904517398,
南京市,89.0,信息工程大学站,32.20446845779934,118.7216357283556,
南京市,90.0,八百桥站,32.42928025854719,118.92815721638944,
南京市,91.0,雄州站,32.33679339477147,118.83153357832056,
南京市,92.0,吉印大道站,31.888200257384305,118.79033707808723,
南京市,93.0,永初路站,31.976308469086387,118.7069989617685,
南京市,94.0,集庆门大街站,32.03060571301435,118.73435998260156,
南京市,95.0,雨花台站,31.993302251420847,118.77592839788927,
南京市,96.0,贾西站,31.96126151665763,118.72890878704877,
南京市,97.0,云锦路站,32.036944113821136,118.74209976156509,
南京市,98.0,江心洲站,32.0337023817262,118.69815863046598,
南京市,99.0,长芦站,32.275538535929186,118.7713670503276,
南京市,100.0,蒋王庙站,32.0796760878732,118.82603154479244,
南京市,101.0,中国药科大学站,31.899864056660245,118.90911354528266,
南京市,102.0,中央商务区站,32.08773583839212,118.6836164218758,
南京市,103.0,金牛湖站,32.46759189036262,118.9595357961339,
南京市,104.0,南医大·江苏经贸学院站,31.935663600582924,118.88522549694494,
南京市,105.0,经天路站,32.118265584216594,118.97148022646256,
南京市,106.0,浦江站,32.09186083204336,118.67811385932954,
南京市,107.0,景明佳园站,31.96433198904372,118.77348918388472,
南京市,108.0,浦口万汇城站,32.06385029999119,118.6520008133774,
南京市,109.0,九华山站,32.05940370694157,118.80083332265744,
南京市,110.0,麒麟门站,32.05526369524481,118.92346218035604,
南京市,111.0,九龙湖站,31.918119821956672,118.8160992002254,
南京市,112.0,青莲街站,31.96442472215429,118.68656857397922,
南京市,113.0,句容站,31.9245762422641,119.164500426886,
南京市,114.0,群力站,31.72277606143722,119.00912319039362,
南京市,115.0,聚宝山站,32.09605771114566,118.85915712190048,
南京市,116.0,三山街站,32.02506806268082,118.77638002933334,
南京市,117.0,上元门站,32.11752433193564,118.764697519599,
南京市,118.0,百家湖站,31.934028673205248,118.8157179502518,
南京市,119.0,胜太路站,31.94564033008818,118.8162680511686,
南京市,120.0,空港新城溧水站,31.73581723107839,118.9840671087004,
南京市,121.0,石湫站,31.64253543945721,118.9023934745742,
南京市,122.0,兰花塘站,31.96045022028309,118.56984219849508,
南京市,123.0,石杨路站,32.00711068787578,118.86681186434475,
南京市,124.0,溧水站,31.6640826813009,119.0392182061147,
南京市,125.0,双垅站,31.950467227300088,118.56245595087115,
南京市,126.0,林场站,32.16571759599794,118.66621243071312,
南京市,127.0,泰山新村站,32.146371027290954,118.71106019132188,
南京市,128.0,林山站,31.920924574694485,118.5259673885025,
南京市,129.0,天保街站,31.96806677136219,118.67344444851592,
南京市,130.0,临江站,32.05933052421681,118.66042900027912,
南京市,131.0,天隆寺站,31.981294193682523,118.75791565152475,
南京市,132.0,灵山站,32.07988303475574,118.93859728229924,
南京市,133.0,天印大道站,31.93980159563533,118.85851928524023,
南京市,134.0,刘村站,31.946461487414776,118.66002516957272,
南京市,135.0,铁心桥站,31.96643508874588,118.75858237417496,
南京市,136.0,柳洲东路站,32.14201922537892,118.74100423733128,
南京市,137.0,童世界站,31.9936319000151,119.158339625549,
南京市,138.0,柳洲南路站,32.1421715382923,118.741041904979,
南京市,139.0,王家湾站,32.087392245882604,118.8327519839827,
南京市,140.0,六合开发区站,32.30728722019072,118.80010505878546,
南京市,141.0,卧龙湖站,31.68814792624653,119.03792750249345,
南京市,142.0,龙池站,32.32116618956984,118.81498790119144,
南京市,143.0,吴侯街站,31.97753943615524,118.6878836733436,
南京市,144.0,龙华路站,32.066909873382464,118.63016359445255,
南京市,145.0,武定门站,32.015808811338964,118.78944890567502,
南京市,146.0,龙江站,32.05996597509777,118.73282809526968,
南京市,147.0,西岗桦墅站,32.10101763683134,118.99123911524556,
南京市,148.0,龙眠大道站,31.942082396623483,118.87213188327222,
南京市,149.0,仙鹤门站,32.08713644996611,118.89988834694756,
南京市,150.0,禄口机场站,31.732509070538907,118.86880798624722,
南京市,151.0,仙林中心站,32.10087312317547,118.92536106136656,
南京市,152.0,螺塘路站,31.962779928017884,118.69632751653208,
南京市,153.0,诚信大道站,31.909813281456483,118.82479037360194,
南京市,154.0,绿博园站,32.02621126486397,118.71153762655328,
南京市,155.0,小市站,32.09706573804217,118.78053284276324,
南京市,156.0,马骡圩站,31.975353329842957,118.5833747732812,
南京市,157.0,百水桥站,32.0556218567352,118.910040744907,
南京市,158.0,卸甲甸站,32.21682915048914,118.72535599963132,
南京市,159.0,迈皋桥站,32.10481773379726,118.80451333397554,
南京市,160.0,新模范马路站,32.081933121270765,118.7785085063706,
南京市,161.0,毛纺厂路站,32.13611554638973,118.7223463524594,
南京市,162.0,星火路站,32.1593801102344,118.69140186825145,
南京市,163.0,孟北站,32.08654540077435,118.9820320290908,
南京市,164.0,幸庄站,31.62643747495395,119.0407486059196,
南京市,165.0,梦都大街站,32.01751566777978,118.71657778053104,
南京市,166.0,徐庄·苏宁总部站,32.08708358288732,118.88465154542196,
南京市,167.0,明发广场站,31.97911234521916,118.79534246416358,
南京市,168.0,学则路站,32.09350195088058,118.91174485539796,
南京市,169.0,明故宫站,32.041328239127004,118.81460883090884,
南京市,170.0,羊山公园站,32.10599699268896,118.93490192524555,
南京市,171.0,明觉站,31.548476580787213,118.89720119956232,
南京市,173.0,莫愁湖站,32.03933985954328,118.75374151161272,
南京市,174.0,崇明站,31.9454765569953,119.173435671367,
南京市,175.0,雨花门站,32.00583538329382,118.78726828393395,
南京市,176.0,秣周东路站,31.871070178777373,118.82592429008454,
南京市,177.0,雨润大街站,31.98571348147441,118.71741170323595,
南京市,178.0,苜蓿园站,32.04237866333859,118.83020576403908,
南京市,179.0,春江路站,31.964400328713275,118.74304031951311,
南京市,180.0,南大仙林校区站,32.11092096021437,118.95439137918964,
南京市,181.0,云南路站,32.06116530129346,118.7694649874928,
南京市,182.0,竹山路站,31.934096537454213,118.83937843661566,
南京市,183.0,长江大桥北站,32.12880440942024,118.72587372698872,
南京市,184.0,柘塘站,31.75886898581955,118.93286356218864,
南京市,185.0,南京工业大学站,32.068972036846965,118.64318129514952,
南京市,186.0,正方中路站,31.8471573686344,118.8006613986382,
南京市,187.0,南京交院站,31.915046592407787,118.89979391912756,
南京市,188.0,中华门站,32.00878423857753,118.76923759824544,
南京市,189.0,南京林业大学·新庄站,32.07856455980356,118.80527526022374,
南京市,190.0,中胜站,31.98993773125765,118.7279578635085,
南京市,191.0,滨江站,32.08305582059898,118.68986995920297,
南京市,192.0,钟灵街站,32.04134057542712,118.86435255986328,
南京市,193.0,南京猿人洞站,32.06331313051074,119.04736065340738,
南京市,194.0,翠屏山站,31.94456190445337,118.77932223408249,
南京市,195.0,草场门·南艺·二师站,32.06238912004848,118.75031347795851,
南京市,196.0,南京北站站,32.167629469918566,118.65540207050972,
南宁市,1.0,明秀路站,22.84200792422253,108.30877024284013,
南宁市,2.0,金湖广场站,22.815575353079808,108.3682771466494,
南宁市,3.0,平良立交站,22.729069956788905,108.37967238563444,
南宁市,4.0,朝阳广场站,22.819858989364853,108.3168521900578,
南宁市,5.0,总部基地站,22.770310339695893,108.37218211745704,
南宁市,6.0,大沙田站,22.763603574989265,108.31277985326318,
南宁市,7.0,那洪立交站,22.76360937097681,108.26611671515548,
南宁市,8.0,广西大学站,22.834418138017952,108.28717073098125,
南宁市,9.0,小鸡村站,22.85892698217397,108.35208117700564,
南宁市,10.0,火车站站,22.8276456231478,108.31235333463724,
南宁市,11.0,安吉客运站站,22.882539699391117,108.29389047191144,
南宁市,12.0,万象城站,22.815705277907067,108.3879268133612,
南宁市,13.0,青竹立交站,22.80194036650373,108.36032937747196,
南宁市,14.0,玉洞站,22.72529915580821,108.33263446988089,
南宁市,15.0,东沟岭站,22.84803025930607,108.35076693848504,
南宁市,16.0,石子塘站,22.743965182352483,108.32038131888385,
南宁市,17.0,东盟商务区站,22.815726245324683,108.394961853217,
南宁市,18.0,新民路站,22.81579710804559,108.3233218685948,
南宁市,19.0,动物园站,22.840638459811565,108.26385309859636,
南宁市,20.0,南职院站,22.83591497429618,108.18825617954194,
南宁市,21.0,飞龙路站,22.76908422600111,108.3821075103298,
南宁市,22.0,三十三中站,22.860760125297023,108.29828259069308,
南宁市,23.0,凤岭站,22.81578247503249,108.40625042621912,
南宁市,24.0,体育中心东站,22.763444734904247,108.395118588493,
南宁市,25.0,佛子岭站,22.83451072654914,108.42079831281129,
南宁市,26.0,五一立交站,22.80390309528465,108.2719642928822,
南宁市,27.0,福建园站,22.799284952647643,108.30728017339636,
南宁市,28.0,秀灵路站,22.840046005543428,108.301810726205,
南宁市,29.0,北湖北路站,22.878322525099755,108.3122688600916,
南宁市,30.0,周家坡站,22.79223947871497,108.2681298948795,
南宁市,31.0,广西规划馆站,22.759857066642223,108.37372707149734,
南宁市,32.0,百花岭站,22.8207840436925,108.42386459256367,
南宁市,33.0,国凯大道站,22.756917209603174,108.26770400431454,
南宁市,34.0,洪运路站,22.768179656665797,108.2387835811163,
南宁市,35.0,石埠站,22.829288717138127,108.17357611113428,
南宁市,36.0,虎邱站,22.850807047596422,108.32707971362731,
南宁市,37.0,苏卢站,22.87166827207566,108.29559836301648,
南宁市,38.0,会展中心站,22.8155343343102,108.3796378641357,
南宁市,39.0,亭洪路站,22.791691261675226,108.30743129259255,
南宁市,40.0,火车东站站,22.84233246103522,108.40999587032562,
南宁市,41.0,北湖南路站,22.84698192341588,108.31795465908075,
南宁市,42.0,西乡塘客运站站,22.835748051878017,108.2152165154984,
南宁市,43.0,建设路站,22.754612438188275,108.31433837353372,
南宁市,44.0,兴桂路站,22.867190200930672,108.35244913655586,
南宁市,45.0,江南公园站,22.78357469651196,108.26772862132704,
南宁市,46.0,邕宾立交站,22.85923392377284,108.35997288117578,
南宁市,47.0,江南客运站站,22.76942425657157,108.30815013733208,
南宁市,48.0,玉象路站,22.77105898019449,108.359382376604,
南宁市,49.0,降桥站,22.865377965559517,108.36989962622054,
南宁市,50.0,南宁剧场站,22.806957949107336,108.30967240066956,
南宁市,51.0,滨湖路站,22.82759450388448,108.36540908125173,
南宁市,52.0,鹏飞路站,22.83585752464991,108.19831540569284,
南宁市,53.0,金凯路站,22.771569803821496,108.2674724135068,
南宁市,54.0,青秀山站,22.795244996422102,108.36454391019832,
南宁市,55.0,金桥客运站站,22.867273038487543,108.38100111098476,
南宁市,56.0,清川站,22.84301044503461,108.24920460283252,
南宁市,57.0,金象大道站,22.763546491021057,108.31919559885873,
南宁市,58.0,庆歌路站,22.752941268808776,108.37930741755532,
南宁市,59.0,金象站,22.73406903613624,108.32823653863883,
南宁市,60.0,狮山公园站,22.85600960902817,108.33686555615525,
南宁市,61.0,金阳路站,22.76367857852804,108.27753403870668,
南宁市,62.0,石柱岭站,22.784313574878908,108.30751452343117,
南宁市,63.0,科园大道站,22.88114181801169,108.26537913933596,
南宁市,64.0,市博物馆站,22.77779908879057,108.37202588994543,
南宁市,65.0,埌东客运站站,22.81558910308189,108.41455041592948,
南宁市,66.0,坛泽站,22.728958523067675,108.392255913148,
南宁市,67.0,埌西站,22.809783776721595,108.3631589997379,
南宁市,68.0,体育中心西站,22.768012131970416,108.3884231156674,
南宁市,69.0,楞塘村站,22.757498819972295,108.4243955753276,
南宁市,70.0,通源路站,22.761364806331084,108.29593851940726,
南宁市,71.0,良庆大桥南站,22.7566730382941,108.40238733047774,
南宁市,72.0,五象湖站,22.741727292798352,108.37972068331098,
南宁市,73.0,良庆圩站,22.755668491603945,108.41388905088284,
南宁市,74.0,五象岭站,22.76402816700292,108.33399184284046,
南宁市,75.0,西津站,22.892047940513677,108.2945050265404,
南宁市,76.0,鲁班路站,22.836894684726595,108.27908160493156,
南宁市,77.0,东风路站,22.72227889348588,108.34824182832176,
南宁市,78.0,麻村站,22.815731596839445,108.34343246712288,
南宁市,79.0,新秀公园站,22.821371200666835,108.28246347451622,
南宁市,80.0,民族大学站,22.840063448533712,108.22909422173292,
南宁市,81.0,秀峰路站,22.88094505751108,108.32723982767472,
南宁市,82.0,白苍岭站,22.83385590931212,108.30318866135482,
南宁市,83.0,秀厢站,22.8513221946236,108.30272057096252,
南宁市,84.0,创业路站,22.88164443452949,108.27999027992686,
南宁市,85.0,邕武路站,22.878272233325447,108.33617869506053,
南宁市,86.0,那福路站,22.727672037138326,108.36947235922597,
南宁市,87.0,玉岭路站,22.724257638168037,108.3561816649774,
南宁市,88.0,大鸡村站,22.875238202395398,108.34692211756666,
南宁市,89.0,长堽路站,22.839471331457844,108.35271016480937,
南宁市,90.0,那历村站,22.763642478388554,108.2549742939955,
南宁市,91.0,东葛路站,22.83270780265569,108.35594434842906,
南宁市,92.0,南湖站,22.81636319789588,108.35900056124042,
南宁市,93.0,民族广场站,22.81578594430185,108.33233034204376,
南昌市,1.0,绳金塔站,28.66162223236963,115.89657724236162,
南昌市,2.0,丁公路南站,28.666611864100396,115.90758392867744,
南昌市,3.0,丁公路北站,28.67730121324454,115.9084959956485,
南昌市,4.0,八一馆站,28.679027924787533,115.8866769256247,
南昌市,5.0,上沙沟站,28.697794808481817,115.90670256806656,
南昌市,6.0,八一广场站,28.67851146332604,115.89782647356049,
南昌市,7.0,西站南广场站,28.62163458958693,115.78548188612068,
南昌市,8.0,地铁大厦站,28.68739613197283,115.84747236845784,
南昌市,9.0,青山路口站,28.689918701476444,115.89674912644224,
南昌市,10.0,市民中心站,28.59670419989558,115.791146363699,
南昌市,11.0,艾溪湖东站,28.67790204157241,115.98849435529496,
南昌市,12.0,雅苑路站,28.69538435678069,115.85248303027863,
南昌市,13.0,南昌西站站,28.62668092480193,115.78831011692417,
南昌市,14.0,卫东站,28.69416631564695,115.84406385710626,
南昌市,15.0,裕丰街站,28.62386075998727,115.72537700715068,
南昌市,16.0,民园路西站,28.721763587439003,115.94267473376124,
南昌市,17.0,翠苑路站,28.67593715548305,115.84174874006584,
南昌市,18.0,起凤路站,28.705761832395,115.91219792791615,
南昌市,19.0,大岗站,28.56386466667765,115.7843081956488,
南昌市,20.0,坛子口站,28.660538646488305,115.9042914208264,
南昌市,21.0,奥体中心站,28.67759441174336,116.01965303288677,
南昌市,22.0,辛家庵站,28.662685773433253,115.93471321889184,
南昌市,23.0,邓埠站,28.593310595831728,115.9050066693892,
南昌市,24.0,银三角北站,28.524341462096185,115.92999821061538,
南昌市,25.0,八大山人站,28.60521524653433,115.9036156420412,
南昌市,26.0,振兴大道站,28.579493060173704,115.90750268258464,
南昌市,27.0,艾溪湖西站,28.677686819296056,115.96876084019216,
南昌市,28.0,绿茵路站,28.700908021637684,115.85315406533508,
南昌市,29.0,丁家洲站,28.6260065591944,115.85181596965812,
南昌市,30.0,彭家桥站,28.677576628528197,115.92856900342362,
南昌市,31.0,东新站,28.601257018768266,115.83432829526308,
南昌市,32.0,青山湖大道站,28.677684988478767,115.94396583178418,
南昌市,33.0,斗门站,28.53235560609987,115.9229629220212,
南昌市,34.0,顺外站,28.667045592948227,115.92328020220756,
南昌市,35.0,墩子塘站,28.68832160978777,115.88994702323734,
南昌市,36.0,滕王阁站,28.67666162700141,115.87292503635383,
南昌市,37.0,福州路站,28.684010181264718,115.8984452862388,
南昌市,38.0,柏岗站,28.547797456359152,115.91336175531286,
南昌市,39.0,高新大道站,28.677721296892717,115.95548794375097,
南昌市,40.0,观洲站,28.63570807521743,115.85828696045164,
南昌市,41.0,灌婴路站,28.65140681201904,115.86793589337717,
南昌市,42.0,永叔路站,28.67017905483179,115.90049301493558,
南昌市,43.0,国博站,28.611480417965154,115.79082451723131,
南昌市,44.0,云天路站,28.642770746042885,115.86310686199384,
南昌市,45.0,国体中心站,28.625667481798533,115.8117410543288,
南昌市,46.0,中堡站,28.626527134567763,115.74815909175726,
南昌市,47.0,国威路站,28.69049425774401,115.93661024171294,
南昌市,48.0,红谷中大道站,28.695040380754328,115.8621229253516,
南昌市,49.0,南昌大桥东站,28.65881069640377,115.87273012401904,
南昌市,50.0,怀玉山大道站,28.618395385269665,115.7943946352223,
南昌市,51.0,南昌火车站,28.6666623626608,115.91638366878,
南昌市,52.0,青山湖西站,28.69666529184019,115.91841262301436,
南昌市,53.0,南路站,28.555985988309555,115.78423167271896,
南昌市,54.0,秋水广场站,28.684428885090792,115.85507648666044,
南昌市,55.0,七里站,28.7127508939096,115.92262521687952,
南昌市,56.0,安丰站,28.61422749676897,115.8040010230114,
南昌市,57.0,前湖大道站,28.655176661725264,115.82998511155006,
南昌市,58.0,白马山站,28.633902458538135,115.71738522798894,
南昌市,59.0,北沥站,28.718697980217804,115.96759471619232,
南昌市,60.0,施尧站,28.61862665362306,115.90301152741104,
南昌市,61.0,璜溪站,28.623426439253443,115.73533942715676,
南昌市,62.0,人民公园站,28.687382740600324,115.90749032493844,
南昌市,63.0,火炬广场站,28.691495252007677,115.94471036682938,
南昌市,64.0,生米站,28.57510364200186,115.78579117572971,
南昌市,65.0,火炬站,28.71989592133389,115.95490396455055,
南昌市,66.0,师大南路站,28.677394874195016,115.9193614886248,
南昌市,67.0,十字街站,28.657277320158304,115.90100614674104,
南昌市,68.0,江铃站,28.627679073434777,115.90255875697322,
南昌市,69.0,双港站,28.74642259888461,115.85624110590652,
南昌市,70.0,太子殿站,28.678161300504968,116.0061584776454,
南昌市,71.0,桃苑站,28.663049643236675,115.8855280569811,
南昌市,72.0,万寿宫站,28.6784521644873,115.88103094995488,
南昌市,73.0,京东大道站,28.695700337593816,115.96756660338067,
南昌市,74.0,卧龙山站,28.63490127422732,115.81749282326972,
南昌市,75.0,京家山站,28.642309460218808,115.90168546036578,
南昌市,76.0,谢家村站,28.677594254758898,115.93584040780767,
南昌市,77.0,九龙湖南站,28.58297463084384,115.78836368606208,
南昌市,78.0,新洪城大市场站,28.609395226486114,115.84577450667548,
南昌市,79.0,科技城站,28.718619992277976,115.97714537268506,
南昌市,80.0,学府大道东站,28.662555270228413,115.83417912676276,
南昌市,81.0,孔目湖站,28.73617655058382,115.85305609736626,
南昌市,82.0,阳明公园站,28.69131550416837,115.8864387471213,
南昌市,83.0,礼庄山站,28.628714379218117,115.76662956965582,
南昌市,84.0,瑶湖西站,28.675187015347564,116.03324158721348,
南昌市,85.0,沥山站,28.559758881082608,115.9111435582695,
南昌市,86.0,鹰潭街站,28.60231379212661,115.79396797388456,
南昌市,87.0,梁万站,28.69356493213574,115.95545377930776,
南昌市,88.0,鱼尾洲站,28.712774121308723,115.99695219586955,
南昌市,89.0,岭北站,28.644342634922776,115.8251797067202,
南昌市,90.0,六眼井站,28.673147291392645,115.88908450586976,
南昌市,91.0,长江路站,28.720816354208218,115.87475533588156,
南昌市,92.0,龙岗站,28.626425959044926,115.7979559537032,
南昌市,93.0,庐山南大道站,28.704738668450183,115.86078257147358,
南昌市,94.0,珠江路站,28.71086206301713,115.87104443227994,
厦门市,1.0,吕厝站,24.49334488615844,118.1230172331796,
厦门市,2.0,五缘湾站,24.53521035487593,118.16220922879002,
厦门市,3.0,体育中心站,24.487198015332886,118.10063267872422,
厦门市,4.0,湖滨东路站,24.47667447670293,118.1056911588689,
厦门市,5.0,火炬园站,24.514537614651225,118.11381934765394,
厦门市,6.0,杏锦路站,24.58387726562341,118.05240899899256,
厦门市,7.0,蔡塘站,24.489858534481908,118.14859302606222,
厦门市,8.0,殿前站,24.527551136874543,118.11120792903657,
厦门市,9.0,钟宅站,24.526670672964727,118.16819287371538,
厦门市,10.0,人才中心站,24.4918430946137,118.0983045596308,
厦门市,11.0,东孚站,24.569335449722058,117.94283719344124,
厦门市,12.0,湿地公园站,24.51923752005108,118.17876172700562,
厦门市,13.0,东瑶站,24.5525764282945,117.9570552219941,
厦门市,14.0,育秀东路站,24.48816669494201,118.10809597474866,
厦门市,15.0,东宅站,24.502048905276435,118.18811230945218,
厦门市,16.0,林前站,24.57888196491,118.2272425305441,
厦门市,17.0,高崎站,24.540190024923238,118.11187087873462,
厦门市,18.0,马青路站,24.496608797400405,118.02520868205548,
厦门市,19.0,古地石站,24.488364796857287,118.1587829932,
厦门市,20.0,鼓锣站,24.581313484283797,118.239454338649,
厦门市,21.0,厦门火车站站,24.47190712030635,118.10971405784257,
厦门市,22.0,观音山站,24.496317887101327,118.18799844893984,
厦门市,23.0,塘边站,24.508965383393477,118.11766737294232,
厦门市,24.0,官任站,24.596324824168384,118.05362433704347,
厦门市,25.0,诚毅广场站,24.60640656818744,118.04909051378088,
厦门市,26.0,海沧商务中心站,24.483609273995235,118.03444225185372,
厦门市,27.0,新垵站,24.5336081649167,118.00109479843468,
厦门市,28.0,海沧湾公园站,24.48734440849031,118.04534443494968,
厦门市,29.0,岩内站,24.64578479581472,118.06526624285608,
厦门市,30.0,海沧行政中心站,24.490262986642332,118.0281949523451,
厦门市,31.0,镇海路站,24.45314120660074,118.07786277544268,
厦门市,32.0,何厝站,24.487974426790856,118.18787875861408,
厦门市,33.0,两岸金融中心站,24.50823561934237,118.18920139048733,
厦门市,34.0,岭兜站,24.48704484765525,118.16902276609628,
厦门市,35.0,后村站,24.582989301534887,118.26683429074592,
厦门市,36.0,后埔站,24.49244495816539,118.14093214875136,
厦门市,37.0,坂尚站,24.521901431025658,118.1418360762462,
厦门市,38.0,软件园二期站,24.483282344202088,118.18035515932704,
厦门市,39.0,湖滨中路站,24.48315343722476,118.0897678149678,
厦门市,40.0,湖里创新园站,24.525651109813804,118.1512648799719,
厦门市,41.0,厦门北站站,24.639050382050964,118.0689987421956,
厦门市,42.0,湖里公园站,24.509382187626827,118.10054601265604,
厦门市,43.0,华荣路站,24.514167304121912,118.1043200715704,
厦门市,44.0,天竺山站,24.58167818077949,117.93215619687938,
厦门市,45.0,文灶站,24.470346672862213,118.0984702234824,
厦门市,46.0,天水路站,24.628674995045145,118.06119949216544,
厦门市,47.0,乌石浦站,24.501580445791426,118.12157318277862,
厦门市,48.0,蔡厝站,24.57521628270512,118.2748287892627,
厦门市,49.0,翁角路站,24.528928060058416,118.00963217952962,
厦门市,50.0,五通站,24.51438772546134,118.18476156796852,
厦门市,51.0,集美大道站,24.62291930198384,118.05058694565083,
厦门市,52.0,集美软件园站,24.616064305861407,118.04298646115016,
厦门市,53.0,小东山站,24.51678186896876,118.12101916847467,
厦门市,54.0,集美学村站,24.566554818146976,118.08733519992298,
厦门市,55.0,新阳大道站,24.54003803219362,117.99050356903912,
厦门市,56.0,建业路站,24.480753488072494,118.07866758312323,
厦门市,57.0,杏林村站,24.579711023840613,118.05650361699514,
厦门市,58.0,江头站,24.495001133716286,118.13298795704388,
厦门市,59.0,邮轮中心站,24.487614735817782,118.07218065877302,
厦门市,60.0,将军祠站,24.46340891603334,118.09486242588925,
厦门市,61.0,园博苑站,24.57260199395828,118.0621894951176,
厦门市,62.0,中山公园站,24.458325465844723,118.08487567757729,
厦门市,63.0,莲坂站,24.478759915556846,118.11324011876609,
厦门市,64.0,安兜站,24.52048225946185,118.1334590992796,
厦门市,65.0,莲花路口站,24.48614130958996,118.11790737922396,
合肥市,1.0,合肥南站站,31.80197943503977,117.28452253378528,
合肥市,2.0,西七里塘站,31.8545039823,117.22540845024872,
合肥市,3.0,合肥火车站站,31.88532516195457,117.30999259510229,
合肥市,4.0,大东门站,31.86592814926734,117.29520384559582,
合肥市,5.0,图书馆站,31.811089294806088,117.21002293767611,
合肥市,6.0,东七里站,31.86970950173102,117.33281516218146,
合肥市,7.0,方庙站,31.88689708263904,117.33658420867008,
合肥市,8.0,云谷路站,31.744277879843818,117.16384757266876,
合肥市,9.0,三里庵站,31.8566002717846,117.2501070824652,
合肥市,10.0,唐桥站,31.855493300024357,117.3298140451609,
合肥市,11.0,滨湖会展中心站,31.756588324043733,117.29711478808925,
合肥市,12.0,义城站,31.742705226616096,117.33339879789196,
合肥市,13.0,滨湖竹园站,31.71139810033229,117.25867238371872,
合肥市,14.0,盛大站,31.794456176401837,117.2963300231478,
合肥市,15.0,丙子铺站,31.693401309725868,117.29185946815268,
合肥市,16.0,万年埠站,31.700380266645723,117.29655734018527,
合肥市,17.0,漕冲站,31.869946684699997,117.34607739573676,
合肥市,18.0,安农大站,31.860181901326285,117.26000711044571,
合肥市,19.0,竹西站,31.805558119715336,117.27096795470386,
合肥市,20.0,大连路站,31.78764321506948,117.32665749066636,
合肥市,21.0,大蜀山站,31.854117781845517,117.1810857282208,
合肥市,22.0,市政务中心站,31.823751824465084,117.22640568443146,
合肥市,23.0,大学城北站,31.776982606885035,117.20436014347322,
合肥市,24.0,天鹅湖站,31.81022533927189,117.2221690939646,
合肥市,25.0,望湖城站,31.8073345381696,117.28650705473046,
合肥市,26.0,东二十埠站,31.870105222071164,117.36144277686653,
合肥市,27.0,安医大二附院站,31.79207495100762,117.20437675876089,
合肥市,28.0,尧渡河路站,31.827088337671235,117.31860729471174,
合肥市,29.0,东五里井站,31.869692020152023,117.31891845534048,
合肥市,30.0,北雁湖站,31.822846245850528,117.15160159096956,
合肥市,31.0,窦桥湾站,31.886888213249637,117.34667442356113,
合肥市,32.0,清水冲站,31.71514774673215,117.2809345433075,
合肥市,33.0,渡江纪念馆站,31.71505484458552,117.32467242089656,
合肥市,34.0,三十埠站,31.870788929974733,117.39163006678632,
合肥市,35.0,繁华大道站,31.78319456129755,117.20437458230498,
合肥市,36.0,省博物院站,31.802874929351105,117.21004772583262,
合肥市,37.0,安医大四附院站,31.93891673763304,117.34316847654452,
合肥市,38.0,十里庙站,31.856901122348717,117.2177250555953,
合肥市,39.0,方兴湖站,31.720059293473568,117.33310767049556,
合肥市,40.0,四牌楼站,31.863655350497503,117.28417043527082,
合肥市,41.0,淝南站,31.801692202172216,117.27595530906116,
合肥市,42.0,陶冲湖东站,31.928486146275585,117.33936149396688,
合肥市,43.0,高王站,31.775108314262148,117.28589132368757,
合肥市,44.0,包河苑站,31.79555064105556,117.31082500852966,
合肥市,45.0,葛大店南站,31.81091354403123,117.30794174341344,
合肥市,46.0,望湖城南站,31.806983789125457,117.29720484067684,
合肥市,47.0,葛大店站,31.816521749852694,117.29761399974986,
合肥市,48.0,五里墩站,31.853111912293944,117.23566242865807,
合肥市,49.0,工大翡翠湖校区站,31.767302436963163,117.1995622335437,
合肥市,50.0,新海大道站,31.892261531156613,117.3533614080364,
合肥市,51.0,工经学院站,31.816621368917183,117.32022216155369,
合肥市,52.0,贵阳路站,31.700476187763837,117.25862944243826,
合肥市,53.0,鸭林冲站,31.89042486197362,117.30192089733916,
合肥市,54.0,桂庄站,31.85257200021179,117.12116208506274,
合肥市,55.0,国防科技大学站,31.842777939303662,117.22576267879693,
合肥市,56.0,幼儿师范站,31.922745149630785,117.36656290171808,
合肥市,57.0,海棠站,31.888939183286837,117.27297902203216,
合肥市,58.0,朱岗站,31.834118327222427,117.29618262455246,
合肥市,59.0,综保区站,31.95261440584888,117.34813085850016,
合肥市,60.0,合肥大剧院站,31.816364984469224,117.21824118142015,
合肥市,61.0,秋浦河路站,31.825138260818655,117.29643289976453,
合肥市,62.0,三里街站,31.86954680893047,117.30840504788162,
合肥市,63.0,包公园站,31.858242618595515,117.2958022156256,
合肥市,64.0,三孝口站,31.86309592866224,117.26983126684456,
合肥市,65.0,合肥七中站,31.831396480091176,117.09507014135102,
合肥市,66.0,沈湾站,31.715058953077087,117.31415621325615,
合肥市,67.0,合肥西站站,31.872268707559677,117.2306312838851,
合肥市,68.0,省行政中心东站,31.733286289136224,117.33331889052413,
合肥市,69.0,合工大南区站,31.84916388897928,117.29515453756352,
合肥市,70.0,十里村站,31.90647422884697,117.34160525553511,
合肥市,71.0,洪岗站,31.834308550900207,117.22608258612134,
合肥市,72.0,花园大道站,31.775052618336595,117.32859277967022,
合肥市,73.0,蜀山西站,31.853271987724312,117.16244595048587,
合肥市,74.0,华山路站,31.715076169404934,117.30540800892685,
合肥市,75.0,四泉桥站,31.888605643525647,117.25106543972078,
合肥市,76.0,淮南路站,31.889251060916745,117.29076443759168,
合肥市,77.0,塘西河公园站,31.733453617782967,117.29705210499102,
合肥市,78.0,黄河路站,31.76836944994216,117.32870213760188,
合肥市,79.0,天鹅湖东站,31.811193155196516,117.23299327452598,
合肥市,80.0,天柱路站,31.85615758239181,117.19299601711232,
合肥市,81.0,金斗公园站,31.72498165722973,117.2970818320646,
合肥市,82.0,万达城站,31.70780976621631,117.2966314742426,
合肥市,83.0,金桂站,31.818203097449054,117.18224197821648,
合肥市,84.0,王岗站,31.87056273340267,117.3840680602655,
合肥市,85.0,九联圩站,31.69342426065328,117.28067006222938,
合肥市,86.0,望湖城西站,31.810765242774316,117.28355760075496,
合肥市,87.0,科大先研院站,31.83218821045696,117.12859896478372,
合肥市,88.0,文浍苑站,31.91146746435375,117.36265861979484,
合肥市,89.0,科学大道站,31.834664328868225,117.19740013603972,
合肥市,90.0,五里庙站,31.839178183907343,117.31829494536848,
合肥市,91.0,量子科学中心站,31.83167254823564,117.10972462184525,
合肥市,92.0,相城路站,31.926950221005725,117.40218166782938,
合肥市,93.0,新海公园站,31.898402351888624,117.33669284318988,
合肥市,94.0,杏花村站,31.88252697230636,117.24012109963502,
合肥市,95.0,柳树塘站,31.813769019027628,117.19260841304715,
合肥市,96.0,幸福坝站,31.752938154772394,117.17516425752196,
合肥市,97.0,龙岗站,31.87025121902613,117.37073153514244,
合肥市,98.0,薛河站,31.80967704308502,117.2636715934859,
合肥市,99.0,骆岗站,31.785376814890878,117.28592130052698,
合肥市,100.0,扬子江路站,31.75499777491426,117.33339164818462,
合肥市,101.0,明光路站,31.871942999760847,117.29902150214689,
合肥市,102.0,姚公庙站,31.810725410893472,117.24383065114358,
合肥市,103.0,云川公园站,31.715165595288116,117.27039924579576,
合肥市,104.0,一里井站,31.889028000460776,117.28165290019749,
合肥市,105.0,站塘站,31.8779894674768,117.33536006420026,
合肥市,106.0,义兴站,31.796666082225723,117.32017517377322,
合肥市,107.0,长淮站,31.87758226166504,117.3035541844112,
合肥市,108.0,玉兰大道站,31.822647120832748,117.17039255840233,
合肥市,109.0,郑河站,31.88877825503862,117.2624656516467,
合肥市,110.0,职教城站,31.926954361887955,117.377414315582,
合肥市,111.0,南岗站,31.85256176373193,117.1100247429092,
合肥市,112.0,南屏路站,31.810486147993107,117.25214394855983,
合肥市,113.0,振兴路站,31.852955568584708,117.14628035937112,
合肥市,114.0,南新庄站,31.863065573217344,117.22523158248696,
合肥市,115.0,职教城东站,31.926979056893774,117.39181056373218,
合肥市,116.0,南站南广场站,31.79454208270164,117.28604519094507,
合肥市,117.0,汽车西站站,31.85271268824376,117.13046507483244,
合肥市,118.0,竹丝滩站,31.88711733540967,117.32534437340767,
合肥市,119.0,勤劳村站,31.89924944097806,117.35573389324384,
合肥市,120.0,紫庐站,31.74269264272159,117.29707717987512,
合肥市,121.0,青龙岗站,31.832012487657423,117.0831475193732,
合肥市,122.0,安大磬苑校区站,31.76133010459884,117.18678152675092,
呼和浩特市,1.0,新华广场站,40.82017663404186,111.66093102497688,
呼和浩特市,2.0,五里营站,40.77607439872249,111.678100595472,
呼和浩特市,3.0,诺和木勒站,40.7968481155994,111.673007054282,
呼和浩特市,4.0,艺术学院站,40.82751202324268,111.6928560071607,
呼和浩特市,5.0,白塔西站,40.853307881839,111.805089424004,
呼和浩特市,6.0,帅家营站,40.75425873131698,111.70012143692944,
呼和浩特市,7.0,百合路站,40.86377249431599,111.75172534707644,
呼和浩特市,8.0,新城图书馆站,40.86114265706053,111.74027152148292,
呼和浩特市,9.0,成吉思汗公园站,40.86014062509651,111.69788471282745,
呼和浩特市,10.0,内蒙古体育馆站,40.85464043774845,111.65746165436347,
呼和浩特市,11.0,成吉思汗广场站,40.85615209974372,111.66948736396908,
呼和浩特市,12.0,什兰岱站,40.85079343267563,111.79381290255871,
呼和浩特市,13.0,大学西街站,40.8046826459525,111.66886691860608,
呼和浩特市,14.0,塔利东路站,40.86800581313237,111.77024448852356,
呼和浩特市,15.0,东二环路站,40.85759855872882,111.72551534367612,
呼和浩特市,16.0,西龙王庙站,40.81004413167602,111.6252840902322,
呼和浩特市,17.0,东影路站,40.82958237871919,111.70199656022288,
呼和浩特市,18.0,一家村站,40.85798590025638,111.7116856641304,
呼和浩特市,19.0,附属医院站,40.81757157185548,111.64877232022396,
呼和浩特市,20.0,阿尔山路站,40.75408596640975,111.74090992843249,
呼和浩特市,21.0,公主府站,40.83443957964733,111.65548558901646,
呼和浩特市,22.0,内蒙古展览馆站,40.83214274946319,111.71359925328711,
呼和浩特市,23.0,毫沁营站,40.8579957641617,111.683852111454,
呼和浩特市,24.0,人民会堂站,40.821999791314816,111.66944605854668,
呼和浩特市,25.0,后不塔气站,40.84686746368202,111.7745092089443,
呼和浩特市,26.0,市政府站,40.83801746942503,111.74034764930784,
呼和浩特市,27.0,呼钢东路站,40.803731284459374,111.6101274940059,
呼和浩特市,28.0,水上公园站,40.78506514827218,111.67453959745038,
呼和浩特市,29.0,呼和浩特东站,40.84595693653748,111.76021092024348,
呼和浩特市,30.0,乌兰夫纪念馆站,40.814114041195175,111.63487243149332,
呼和浩特市,31.0,呼和浩特体育场站,40.8491464089688,111.64917507697454,
呼和浩特市,32.0,西二环路站,40.79347361403151,111.5854126821506,
呼和浩特市,33.0,呼和浩特站,40.82769948890311,111.65890940913792,
呼和浩特市,34.0,锡林公园站,40.769558690820425,111.680643009802,
呼和浩特市,35.0,将军衙署站,40.82481484129594,111.68207199688705,
呼和浩特市,36.0,坝堰(机场)站,40.85635401743854,111.81774822367638,
呼和浩特市,37.0,新店站,40.86589490755248,111.75895822986296,
呼和浩特市,38.0,孔家营站,40.79868304332251,111.59799902571704,
呼和浩特市,39.0,伊利健康谷站,40.78360968355878,111.56835399783334,
呼和浩特市,40.0,喇嘛营站,40.75431162887153,111.72443937625548,
呼和浩特市,41.0,中山路站,40.81397426555824,111.66420809851437,
呼和浩特市,42.0,内大南校区站,40.75782160936668,111.68563524498214,
呼和浩特市,43.0,内蒙古博物院站,40.83463559314588,111.72495798977924,
哈尔滨市,1.0,太平桥站,45.78156189172676,126.67111564577708,
哈尔滨市,2.0,珠江路站,45.73457331600415,126.6866105841983,
哈尔滨市,3.0,博物馆站,45.75645213360198,126.637819589207,
哈尔滨市,4.0,医大二院站,45.69555716763754,126.60978259673504,
哈尔滨市,5.0,群力第五大道站,45.72880659311497,126.53943125056225,
哈尔滨市,6.0,旭升街站,45.700392640995126,126.6580755026572,
哈尔滨市,7.0,太阳岛站,45.78261809715571,126.58194374979134,
哈尔滨市,8.0,大有坊街站,45.773128201366966,126.684676558983,
哈尔滨市,9.0,龙川路站,45.82143046612764,126.54354811459784,
哈尔滨市,10.0,东北农业大学站,45.7276184430488,126.71786617832922,
哈尔滨市,11.0,省政府站,45.74045894715783,126.65738600372065,
哈尔滨市,12.0,工程大学站,45.77348508840589,126.662026338329,
哈尔滨市,13.0,瓦盆窑站,45.643471078932194,126.6275315414372,
哈尔滨市,14.0,工农大街站,45.71684322665197,126.55268873330608,
哈尔滨市,15.0,中央大街站,45.76701107805857,126.61033158703611,
哈尔滨市,16.0,工人文化宫站,45.74803756139954,126.64790012862863,
哈尔滨市,17.0,气象台站,45.72498581597765,126.73638790719578,
哈尔滨市,18.0,公滨路站,45.72875259819524,126.68504278972256,
哈尔滨市,19.0,尚志大街站,45.76365981294754,126.62006121437147,
哈尔滨市,20.0,哈达站,45.68126837500753,126.61290006245024,
哈尔滨市,21.0,市第二医院站,45.76523452087961,126.68663053073962,
哈尔滨市,22.0,哈尔滨北站站,45.85035686038658,126.53158730869468,
哈尔滨市,23.0,铁路局站,45.749570152902834,126.63004139288928,
哈尔滨市,24.0,哈尔滨东站站,45.787275598870536,126.70298325000184,
哈尔滨市,25.0,湘江路站,45.740348718003446,126.6883888755611,
哈尔滨市,26.0,哈尔滨南站站,45.66797677563077,126.6158321150654,
哈尔滨市,27.0,大耿家站,45.83306424406101,126.53489459475227,
哈尔滨市,28.0,哈尔滨西站站,45.704347061913765,126.57328647440563,
哈尔滨市,29.0,渤海路站,45.61339060448471,126.6418844443614,
哈尔滨市,30.0,哈尔滨站站,45.76047164485213,126.62896192035222,
哈尔滨市,31.0,南直路站,45.73285925768084,126.6998164051452,
哈尔滨市,32.0,哈工大站,45.74263008694932,126.6218155525536,
哈尔滨市,33.0,汽轮机厂站,45.712467332472976,126.68348272241448,
哈尔滨市,34.0,哈西大街站,45.69373488446246,126.59096465590736,
哈尔滨市,35.0,人民广场站,45.77107750724363,126.59911436649509,
哈尔滨市,36.0,海河东路站,45.75784615729463,126.68853662804796,
哈尔滨市,37.0,省医院站,45.73470492642321,126.67119302890949,
哈尔滨市,38.0,和兴路站,45.73049089957544,126.6095313225221,
哈尔滨市,39.0,世茂大道站,45.80473406505291,126.54640908804645,
哈尔滨市,40.0,黑龙江大学站,45.70503991485175,126.60768034824936,
哈尔滨市,41.0,城乡路站,45.71008599778684,126.56161443277443,
哈尔滨市,42.0,桦树街站,45.78603936565381,126.6919111835556,
哈尔滨市,43.0,体育公园站,45.736666761056185,126.54428785825756,
哈尔滨市,44.0,会展中心站,45.748424155476144,126.69055285339446,
哈尔滨市,45.0,同江路站,45.65429589949167,126.61879772757642,
哈尔滨市,46.0,江北大学城站,45.871118352645375,126.53754934893786,
哈尔滨市,47.0,西大桥站,45.73691971229063,126.61518906934369,
哈尔滨市,48.0,交通学院站,45.785740740411335,126.68140157163532,
哈尔滨市,49.0,新疆大街站,45.60393486243351,126.62705379051442,
哈尔滨市,50.0,烟厂站,45.76675604296304,126.64990367894065,
哈尔滨市,51.0,学府路站,45.72053295176478,126.60396924913684,
哈尔滨市,52.0,医大一院群力院区站,45.72260288449964,126.54566910418838,
哈尔滨市,53.0,油坊街站,45.72123380894567,126.68442171333346,
哈尔滨市,54.0,进乡街站,45.70267996868797,126.68020444560624,
哈尔滨市,55.0,医大一院站,45.76211551659301,126.64444701333086,
哈尔滨市,56.0,镜泊路站,45.630216797712805,126.63096447790709,
哈尔滨市,57.0,征仪路站,45.69758925639669,126.62849294963463,
哈尔滨市,58.0,凯盛源广场站,45.69935399834382,126.5794132332246,
哈尔滨市,59.0,肿瘤医院站,45.69848842128258,126.63718939654908,
哈尔滨市,60.0,劳动公园站,45.69894307047383,126.66912182617996,
哈尔滨市,61.0,冰雪大世界站,45.77664380384456,126.56175110717447,
哈尔滨市,62.0,理工大学站,45.71292593436405,126.60595675723935,
大连市,1.0,西安路站,38.90861847635777,121.5823758515226,
大连市,2.0,河口站,38.84260281504069,121.50844243030568,
大连市,3.0,九里站,39.1472975232824,121.73699852633922,
大连市,4.0,千山路站,38.978313253307256,121.57674565499092,
大连市,5.0,香工街站,38.93032821143665,121.58382953558647,
大连市,6.0,大连湾站,39.034469691807686,121.70465075401052,
大连市,7.0,大医二院站,38.880591806097065,121.56554753236524,
大连市,8.0,泉水站,39.00052618809281,121.61186342858755,
大连市,9.0,大医三院站,39.38542483481408,121.92920451122669,
大连市,10.0,地铁大连站站,38.92240584861938,121.625231962933,
大连市,11.0,姚家站,39.02248944232181,121.61439087395487,
大连市,12.0,普兰店开发区站,39.41122219561044,121.94430606454767,
大连市,13.0,青泥洼桥站,38.91615310922358,121.62636811641138,
大连市,14.0,东港站,38.919248592333005,121.68460577622264,
大连市,15.0,十九局站,39.12845640089727,121.7250366299338,
大连市,16.0,东海站,38.91424519367099,121.69783111537244,
大连市,17.0,湾家站,38.92370359859183,121.53683800726108,
大连市,18.0,东山路站,39.09115576705919,121.73230573650382,
大连市,19.0,辛寨子站,38.970324456804754,121.50956924756696,
大连市,20.0,东纬路站,38.95549601792204,121.57517537855722,
大连市,21.0,友好广场站,38.91881982699836,121.63266240379544,
大连市,22.0,二十里堡站,39.19561622318236,121.75163361339575,
大连市,23.0,保税区站,39.0593715865375,121.79730170214349,
大连市,24.0,富国街站,38.89802633879764,121.57975773949856,
大连市,25.0,普湾体育场站,39.357059379591234,121.83447949337452,
大连市,26.0,港湾广场站,38.92583439332381,121.65516012835258,
大连市,27.0,三十里堡站,39.2640032842632,121.77967502510889,
大连市,28.0,石河北海站,39.35862570522499,121.85754013606676,
大连市,29.0,松江路站,38.96804156338747,121.57297317816148,
大连市,30.0,海事大学站,38.865200779431326,121.52945763759334,
大连市,31.0,春柳站,38.93520889337434,121.5774282247272,
大连市,32.0,海湾高中站,39.397943097911714,121.94168218469194,
大连市,33.0,铁山站,38.80102637245773,121.17239485458246,
大连市,34.0,海之韵站,38.910064059603,121.7103683600649,
大连市,35.0,大连北站站,39.0139345035998,121.60284385716103,
大连市,36.0,和平路站,39.10665782303473,121.72018463625362,
大连市,37.0,小窑湾站,39.07577759574749,121.89414409096145,
大连市,38.0,蔡大岭站,38.850027588628905,121.48952435440351,
大连市,39.0,黑石礁站,38.87375952579038,121.552538192421,
大连市,40.0,红旗西路站,38.92689225593945,121.52839106260664,
大连市,41.0,长店堡站,39.37854414103427,121.89223200396997,
大连市,42.0,虹港路站,38.95492856626185,121.53803819639307,
大连市,43.0,中长街站,38.923094541012645,121.5870653783034,
大连市,44.0,虹锦路站,38.94625893330242,121.53505285087152,
大连市,45.0,鸿玮澜山站,39.08106577373788,121.74628390977507,
大连市,46.0,普兰店振兴街站,39.43100393831693,121.91915585818484,
大连市,47.0,七贤岭站,38.85615030718844,121.52232179956113,
大连市,48.0,后盐站,39.02049371263881,121.63272885899596,
大连市,49.0,人民广场站,38.90990444493397,121.60539851290878,
大连市,50.0,华北路站,39.007638445330095,121.58905188612744,
大连市,51.0,华南北站,38.99941089012612,121.58106961015672,
大连市,52.0,十三里站,39.171798693330096,121.75333559545729,
大连市,53.0,华南广场站,38.98874171279154,121.58155422233284,
大连市,54.0,石河黄旗站,39.326312624148464,121.81587172593348,
大连市,55.0,黄泥川站,38.85476137577189,121.44359258976492,
大连市,56.0,双D港站,39.0625358092834,121.86677763623472,
大连市,57.0,会议中心站,38.9236005617421,121.67042773457376,
大连市,58.0,会展中心站,38.89077803825417,121.58064937182132,
大连市,59.0,机场站,38.96087297720143,121.53543742288736,
大连市,60.0,塔河湾站,38.82249844878602,121.33619895174743,
大连市,61.0,交通大学站,38.91210595587265,121.5668061621686,
大连市,62.0,金家街站,38.9669973518212,121.596594080403,
大连市,63.0,通世泰站,39.06691474214725,121.76208918785272,
大连市,64.0,金马路站,39.04811211614497,121.73855096528138,
大连市,65.0,香炉礁站,38.92786155872184,121.59858237123927,
大连市,66.0,金石滩站,39.0855614013542,122.0008832329567,
大连市,67.0,星海广场站,38.88385815307234,121.57752205455056,
大连市,68.0,兴工街站,38.91608262847562,121.58368802279116,
大连市,69.0,开发区站,39.05256412297002,121.76941167082718,
大连市,70.0,学苑广场站,38.873961928881656,121.5405749410578,
大连市,71.0,一二九街站,38.912230479881806,121.61765810279944,
大连市,72.0,联合路站,38.91327998981935,121.59147230242816,
大连市,73.0,辽师大站,38.91522200966808,121.55909832314067,
大连市,74.0,龙王塘站,38.83466392179498,121.397956199324,
大连市,75.0,中山广场站,38.920734030904754,121.63891357728004,
大连市,76.0,旅顺新港站,38.80584013564857,121.13965370034995,
大连市,77.0,旅顺站,38.84300046493801,121.24763659650117,
大连市,78.0,马栏广场站,38.91926283343255,121.54962184706623,
天津市,1.0,天津站站,39.13709730986167,117.20363080030546,
天津市,2.0,西站站,39.155860073018296,117.16042314108203,
天津市,3.0,泰达站,39.02466493160992,117.6731544916406,
天津市,4.0,肿瘤医院站,39.077965299339056,117.17814414135113,
天津市,5.0,成林道站,39.12932478753723,117.23957980967218,
天津市,6.0,文化中心站,39.08753696759194,117.20250062585625,
天津市,7.0,东南角站,39.135820605014,117.1841094354582,
天津市,8.0,营口道站,39.11759588030905,117.19137783055868,
天津市,9.0,和平路站,39.12586966774736,117.19835623810482,
天津市,10.0,渌水道站,39.04460406667361,117.26372527066316,
天津市,11.0,红旗南路站,39.09165174552233,117.14175654191229,
天津市,12.0,北站站,39.16560939041848,117.20152752019516,
天津市,13.0,天津宾馆站,39.08431963753035,117.19224639722998,
天津市,14.0,金钟河大街站,39.17111595731532,117.2356152320049,
天津市,15.0,西南角站,39.13627456777353,117.1656404408416,
天津市,16.0,靖江路站,39.14196588919593,117.23794259254346,
天津市,17.0,下瓦房站,39.10425825250893,117.21660702490338,
天津市,18.0,张兴庄站,39.190876680916624,117.208526672658,
天津市,19.0,直沽站,39.110026244690914,117.2276551185524,
天津市,20.0,长虹公园站,39.13667549173188,117.14304787129052,
天津市,21.0,王顶堤站,39.09101495590568,117.1326663384821,
天津市,22.0,南站站,39.055937737357,117.0557397467441,
天津市,23.0,一中心医院站,39.10216347515956,117.14305928785016,
天津市,24.0,大毕庄站,39.201977332389454,117.27224292836716,
天津市,25.0,泰昌路站,39.12133292558908,117.25022126355772,
天津市,26.0,大王庄站,39.12621634440697,117.2121895113577,
天津市,27.0,小白楼站,39.11385447781635,117.2092301381341,
天津市,28.0,大学城站,39.07130882067055,117.10572349094046,
天津市,29.0,民航大学站,39.10761586552086,117.34283028755904,
天津市,30.0,丹河北道站,39.251259527151255,117.1572651044119,
天津市,31.0,双港站,39.02932974836423,117.2712924510109,
天津市,32.0,登州路站,39.14945359008637,117.28957176116197,
天津市,33.0,天士力站,39.20483507119732,117.20890230747096,
天津市,34.0,登州南路站,39.115495576796725,117.2990656011532,
天津市,35.0,第二大街站,39.0324505920914,117.674795519907,
天津市,36.0,徐州道站,39.114441528329536,117.21221702076848,
天津市,37.0,第九大街站,39.06220293704882,117.69372178240572,
天津市,38.0,远洋国际中心站,39.13551965573525,117.21497679336063,
天津市,39.0,第六大街站,39.0534093409745,117.682130103859,
天津市,40.0,南何庄站,39.20528303060135,117.2846758011803,
天津市,41.0,第七大街站,39.0572196065404,117.683550064662,
天津市,42.0,沙柳南路站,39.11637468788292,117.2825966352894,
天津市,43.0,第三大街站,39.03500029954314,117.68406791635545,
天津市,44.0,水上公园东路站,39.07845698530869,117.1667869331632,
天津市,45.0,第十大街站,39.0685119983198,117.688166218442,
天津市,46.0,滨海国际机场站,39.13096519913791,117.35611180141623,
天津市,47.0,第十一大街站,39.073100049086,117.690251563394,
天津市,48.0,铁东路站,39.17881086498755,117.20099715341306,
天津市,49.0,第四大街站,39.0446094360256,117.679114923619,
天津市,50.0,第五大街站,39.04632206134693,117.68875613079972,
天津市,51.0,陈塘庄站,39.08253259542264,117.24222182900992,
天津市,52.0,第一大街站,39.0287944772012,117.673482571313,
天津市,53.0,新开河站,39.1677480144474,117.1966394967764,
天津市,54.0,学院区站,39.0837663163643,117.696028220708,
天津市,55.0,东沽路站,39.01130095075048,117.40184649692353,
天津市,56.0,宜兴埠站,39.19650576748189,117.21230975082727,
天津市,57.0,东海路站,39.0396254446209,117.73098345737291,
天津市,58.0,翠阜新村站,39.14299750989018,117.25133463607624,
天津市,59.0,东丽开发区站,39.078293323036405,117.35092330003522,
天津市,60.0,南楼站,39.09501385084658,117.217603926098,
天津市,61.0,东兴路站,39.10244450410626,117.2363018246183,
天津市,62.0,人民医院站,39.1453746967893,117.1433071815146,
天津市,63.0,洞庭路站,39.04264997702624,117.23961570945016,
天津市,64.0,十一经路站,39.12037743071935,117.21767478349314,
天津市,65.0,二号桥站,39.09417428829894,117.28681915930945,
天津市,66.0,双林站,39.05620709346413,117.28584816802132,
天津市,67.0,二纬路站,39.12923795858353,117.16838751567047,
天津市,68.0,思源路站,39.18235443696407,117.22118122268942,
天津市,69.0,丰产河站,39.23710077724073,117.22973456780484,
天津市,70.0,塘沽站,39.028730385364256,117.65487171862652,
天津市,71.0,复兴路站,39.15464338258319,117.15202991122176,
天津市,72.0,财经大学站,39.062971643094464,117.27062433526436,
天津市,73.0,复兴门站,39.07624229352787,117.2539077779888,
天津市,74.0,天泰路站,39.167290856628384,117.17740649038168,
天津市,75.0,钢管公司站,39.03884073941375,117.49757156628206,
天津市,76.0,外院附中站,39.17021257176565,117.18555256595631,
天津市,77.0,高新区站,39.07074417932424,117.09219408714674,
天津市,78.0,吴家窑站,39.09874056398497,117.17981954464511,
天津市,79.0,高庄子站,39.042007495017096,117.35429631620175,
天津市,80.0,鼓楼站,39.13605491563151,117.17488981978669,
天津市,81.0,广开四马路站,39.13654430394375,117.15536824566875,
天津市,82.0,咸水沽西站,38.979539632040975,117.36731063749008,
天津市,83.0,国家会展中心站,39.02786327055969,117.37744836530192,
天津市,84.0,小东庄站,39.063256136510745,117.39678588572096,
天津市,85.0,国瑞路站,39.020821317947046,117.38420111337834,
天津市,86.0,新兴村站,39.10042818207389,117.36395296712207,
天津市,87.0,国山路站,39.15302425730759,117.30341038650192,
天津市,88.0,学府工业区站,39.07074802570108,117.07213294169549,
天津市,89.0,杨伍庄站,39.06719697265245,117.06320109051966,
天津市,90.0,海光寺站,39.12127901153456,117.17119079647554,
天津市,91.0,宜宾道站,39.1252834011148,117.14306234718607,
天津市,92.0,海河教育园区站,38.98796034791951,117.31578855464376,
天津市,93.0,航双路站,39.11001667972392,117.32750810450472,
天津市,94.0,跃进北路站,39.11295382503741,117.31241296174372,
天津市,95.0,和慧南路站,38.98025116261097,117.35385428073198,
天津市,96.0,梅林路站,39.04387891187374,117.24851427359437,
天津市,97.0,北辰道站,39.23949469619118,117.1672904254834,
天津市,98.0,民权门站,39.16764934323085,117.2272697407154,
天津市,99.0,南翠屏站,39.0788848320639,117.15226697031464,
天津市,100.0,北辰科技园北站,39.26683137941291,117.14334370546928,
天津市,101.0,南开大学津南校区站,38.98177527431877,117.33510777416367,
天津市,102.0,洪湖里站,39.16976078175911,117.15553331869474,
天津市,103.0,南孙庄站,39.20541277574032,117.311942388137,
天津市,104.0,勤俭道站,39.17719461027571,117.14728073809184,
天津市,105.0,胡家园站,39.039761268114056,117.60127379693644,
天津市,106.0,瑞景新苑站,39.19899844646896,117.11542316380758,
天津市,107.0,华北集团站,39.22650127037231,117.221393761522,
天津市,108.0,华山里站,39.06520334958691,117.25562048021548,
天津市,109.0,市民广场站,39.01728779959179,117.6967950178989,
天津市,110.0,华苑站,39.08603541136001,117.12234316918722,
天津市,111.0,淮河道站,39.21747823356496,117.1861556005632,
天津市,112.0,会展中心站,39.02905333588996,117.72539733794616,
天津市,113.0,顺驰桥站,39.14042063181357,117.22733319483297,
天津市,114.0,佳园里站,39.19078078612988,117.12172718660273,
天津市,115.0,太湖路站,39.01897356540346,117.71711205604409,
天津市,116.0,尖山路站,39.086257340736594,117.21772811683768,
天津市,117.0,卞兴站,39.14504838330333,117.1028507604442,
天津市,118.0,建昌道站,39.17860151611272,117.22836566202731,
天津市,119.0,体育中心站,39.073681659997135,117.16611126380936,
天津市,120.0,建国道站,39.1379686421915,117.1945842186567,
天津市,121.0,天津大学北洋园校区站,38.99169925001456,117.30221813844416,
天津市,122.0,解放南路站,39.03980650732019,117.22775397485243,
天津市,123.0,芥园西道站,39.14149539502567,117.1132332326478,
天津市,124.0,天塔站,39.09472164445744,117.17141958880622,
天津市,125.0,金街站,39.13076068339123,117.18585908154292,
天津市,126.0,天拖站,39.10811081842183,117.143045508148,
天津市,127.0,金狮桥站,39.15002757445146,117.20146140200336,
天津市,128.0,土城站,39.08824258881226,117.22601533230664,
天津市,129.0,北宁公园站,39.16524673610314,117.21687654018756,
天津市,130.0,万东路站,39.11848154015963,117.2610984463211,
天津市,131.0,金钟街站,39.1986561748447,117.2590408271826,
天津市,132.0,曹庄站,39.14451743487284,117.08452861268346,
天津市,133.0,津塘路站,39.11554717555945,117.23512627595966,
天津市,134.0,西北角站,39.145472406453095,117.16530363748066,
天津市,135.0,津湾广场站,39.1308728152219,117.20126055626172,
天津市,136.0,西康路站,39.11117251534108,117.18180952297492,
天津市,137.0,西南楼站,39.09443799459186,117.209780152789,
天津市,138.0,景荷道站,39.01852075777807,117.27809328399223,
天津市,139.0,昌凌路站,39.05546373084265,117.1784535440404,
天津市,140.0,景荔道站,39.01043390906972,117.28332650408828,
天津市,141.0,军粮城站,39.04698081216981,117.4496169279227,
天津市,142.0,咸阳路站,39.13661685563332,117.12887472714776,
天津市,143.0,空港经济区站,39.15653989772829,117.328387659678,
天津市,144.0,小淀站,39.2381283075735,117.25134957892904,
天津市,145.0,乐园道站,39.09026421518842,117.21122612132494,
天津市,146.0,新立站,39.08479622869098,117.32955966619686,
天津市,147.0,幸福公园站,39.15311620100517,117.2379151907796,
天津市,148.0,李楼站,39.053427497333765,117.31078409261288,
天津市,149.0,徐庄子站,39.18989460007672,117.24787028991696,
天津市,150.0,学院区北站,39.0877072395371,117.698454539338,
天津市,151.0,鞍山西道站,39.115412244169406,117.14297145842602,
天津市,152.0,志成路站,39.18607240575624,117.21284356077976,
天津市,153.0,一号桥站,39.0950633142828,117.27663443474418,
天津市,154.0,中山门站,39.09990475836175,117.25804348174287,
天津市,155.0,医大二院站,39.08022209244989,117.21777190716118,
天津市,156.0,北竹林站,39.159159312700005,117.16641499613252,
天津市,157.0,宜兴埠北站,39.20196771968418,117.1991186813394,
天津市,158.0,左江道站,39.059172159463394,117.21104685701548,
天津市,159.0,迎风道站,39.08505399773336,117.1430784968187,
天津市,160.0,六纬路站,39.11467196766099,117.22122678480044,
天津市,161.0,屿东城站,39.14619379226482,117.273529729056,
天津市,162.0,本溪路站,39.1842574573895,117.1330459304153,
天津市,163.0,月牙河站,39.16377912120487,117.2395114799515,
天津市,164.0,梅江道站,39.067844119216325,117.2193405300798,
天津市,165.0,张贵庄站,39.09107039329637,117.3014285583136,
天津市,166.0,梅江公园站,39.05136724621992,117.2112850695666,
天津市,167.0,梅江会展中心站,39.04335338440831,117.2114542395274,
天津市,168.0,李七庄南站,39.03540391355446,117.16431572349396,
天津市,169.0,职业大学站,39.229908502810765,117.1756232597377,
天津市,170.0,联合研究院站,39.0800123634453,117.696572062554,
天津市,171.0,中山路站,39.16078298975723,117.1992350511008,
天津市,172.0,辽河北道站,39.2086686390288,117.19368490741164,
天津市,173.0,中医一附院站,39.04577168335901,117.17843673637424,
天津市,174.0,凌宾路站,39.06700993215063,117.16566326378212,
天津市,175.0,周邓纪念馆站,39.09164506891734,117.15723637990082,
天津市,176.0,刘园站,39.20673905365393,117.1094631401977,
天津市,177.0,鞍山道站,39.119304147603714,117.18101107687995,
太原市,1.0,通达街站,37.729788456439465,112.56232139160488,
太原市,2.0,大北门站,37.88764091810825,112.555754225541,
太原市,3.0,大南门站,37.858804666551286,112.55318867030036,
太原市,4.0,电子西街站,37.75176211628565,112.55865003788674,
太原市,5.0,府西街站,37.8716143857032,112.5547211522908,
太原市,6.0,缉虎营站,37.87831395770303,112.55559000344468,
太原市,7.0,学府街站,37.80640954594743,112.55557730004874,
太原市,8.0,嘉节站,37.7635921832978,112.55596295155516,
太原市,9.0,长风街站,37.81627484986216,112.555545100444,
太原市,10.0,尖草坪站,37.915215553826926,112.55663863572155,
太原市,11.0,南中环站,37.79376688242652,112.55555271480895,
太原市,12.0,胜利街站,37.89688499105261,112.55597455824832,
太原市,13.0,涧河站,37.90516505777407,112.55694434833892,
太原市,14.0,体育馆站,37.84523202870496,112.55478633094457,
太原市,15.0,晋阳街站,37.78793816686369,112.55554637604028,
太原市,16.0,王村南街站,37.8299564599635,112.55529906138952,
太原市,17.0,开化寺街站,37.864557788466506,112.55387835368091,
太原市,18.0,康宁街站,37.742362872766215,112.56119223140776,
太原市,19.0,西桥站,37.70745019907911,112.55658855110254,
太原市,20.0,龙城公园站,37.773153511972886,112.5549179087216,
太原市,21.0,龙兴街站,37.78112492507514,112.5552586276638,
太原市,22.0,南内环站,37.83573796185291,112.55505794145137,
宁波市,1.0,,29.81921032171749,121.57593206437836,南高教园区站
宁波市,2.0,,29.86275552022642,121.61055182798589,海晏北路站
宁波市,3.0,,29.91427067067303,121.6167623106277,三官堂站
宁波市,4.0,,29.879128286053067,121.5276701317801,大卿桥站
宁波市,5.0,,29.867054502096533,121.57731977865936,樱花公园站
宁波市,6.0,,29.90638739572265,121.57731968171927,大通桥站
宁波市,7.0,,29.86469518687286,121.53282897183736,宁波火车站站
宁波市,8.0,,29.855785859240516,121.57428130741134,儿童公园站
宁波市,9.0,,29.82819747006745,121.50000443783114,石碶站
宁波市,10.0,,29.87649461514824,121.5448090858624,鼓楼站
宁波市,11.0,,29.820859372485884,121.54601551556664,鄞州区政府站
宁波市,12.0,,29.9777845920194,121.44649022816644,慈城站
宁波市,13.0,,29.80946844687407,121.54499986717968,南部商务区站
宁波市,14.0,,29.81429426069278,121.58888543345807,下应路站
宁波市,15.0,,29.890581682321493,121.52806344406274,翠柏里站
宁波市,16.0,,29.83840658727404,121.56149452324622,钱湖北路站
宁波市,17.0,,29.674814129041057,121.44510274518888,大成东路站
宁波市,18.0,,29.830323742841287,121.48644827336985,同德路站
宁波市,19.0,,29.89578134967178,121.79046232166866,大碶站
宁波市,20.0,,29.820881371056803,121.4920678471605,鄞州大道站
宁波市,21.0,,29.89916931379439,121.61781359171115,盎孟港站
宁波市,22.0,,29.91419787284675,121.63031041914414,宁波大学站
宁波市,23.0,,29.936549094676085,121.48588570641314,奥体中心站
宁波市,24.0,,29.849124552127403,121.65728385185125,邱隘东站
宁波市,25.0,,29.819563853851424,121.59763699888308,大洋江站
宁波市,26.0,,29.82768932733268,121.60073816417447,泗港站
宁波市,27.0,,29.85560572470225,121.64644902153188,东环南路站
宁波市,28.0,,29.940759470795424,121.6732659734826,五里牌站
宁波市,29.0,,29.87407440322526,121.5512868609386,东门口站
宁波市,30.0,,29.923545469652943,121.61052505057202,兴庄路站
宁波市,31.0,,29.784374911738556,121.62423515615616,东钱湖站
宁波市,32.0,,29.924536957885586,121.53030463184504,庄桥火车站站
宁波市,33.0,,29.854930156807686,121.5621063188699,白鹤站
宁波市,34.0,,29.76747350529944,121.4846149420714,朝阳站
宁波市,35.0,,29.74797662698364,121.44793465917864,方桥站
宁波市,36.0,,29.84401331402933,121.50849710047052,藕池站
宁波市,37.0,,29.952328771995656,121.68926391581368,枫园站
宁波市,38.0,,29.833994719675736,121.51006134549104,轻纺城站
宁波市,39.0,,29.863613145438777,121.58899960853417,福明路站
宁波市,40.0,,29.8590492648878,121.63215726861104,盛莫路站
宁波市,41.0,,29.86144514839446,121.62010243470564,福庆北路站
